stop_id,stop_code,stop_name,stop_desc,stop_lat,stop_lon,zone_id,wheelchair_boarding
B_1067,1067,ARMUNGIA,,39.52237,9.381247,1,
B_11122,11122,ARMUNGIA VIA EMILIO LUSSU 26,,39.52070,9.377318,1,
B_1014,1014,ASSEMINI VIA CARMINE,,39.2860,9.006772,2,
B_10317,10317,ASSEMINI VIA CAGLIARI-CHIESA,,39.29416,8.990266,2,
B_1448,1448,MACCHIAREDDU CONTIVECCHI,,39.22413,9.02434,30,
B_1439,1439,MACCHIAREDDU DORS_CONS MURGIA EST,,39.2561,8.970202,30,
B_1440,1440,MACCHIAREDDU FRONTE ELSA,,39.24800,8.991529,30,
B_1441,1441,MACCHIAREDDU SAVINIL,,39.24403,8.992456,30,
B_1442,1442,MACCHIAREDDU FRONTE BRIDGESTONE,,39.24076,8.985481,30,
B_1443,1443,MACCHIAREDDU DI.CO.VI.SA,,39.23954,8.980869,30,
B_1444,1444,MACCHIAREDDU SARMAPLAST,,39.23501,8.980511,30,
B_1445,1445,MACCHIAREDDU  NIVEA,,39.23071,8.983594,30,
B_1446,1446,MACCHIAREDDU  FLUORSID-PUSCEDDU,,39.23239,8.994752,30,
B_1447,1447,MACCHIAREDDU ENICHEM,,39.23311,9.011807,30,
B_1062,1062,BALLAO,,39.54932,9.362179,3,
B_2023,2023,BALLAO VIA CAGLIARI 54,,39.54792,9.359169,3,
B_1616,1616,BARRALI,,39.47743,9.101131,4,
B_10702,10702,BARRALI VIA DONORI,,39.472897,9.1037752,4,
B_10703,10703,BARRALI MUNICIPIO,,39.47564,9.102385,4,
B_1056,1056,BURCEI,,39.34664,9.361548,5,
B_10164,10164,BURCEI VIA ROMA Q8,,39.33758,9.362186,5,
B_10166,10166,BURCEI VIA ROMA 135,,39.34184,9.360479,5,
B_10167,10167,BURCEI VIA ROMA 83,,39.34394,9.360397,5,
B_10165,10165,BURCEI VIA ROMA FR. 184,,39.33934,9.361534,5,
B_1000,1000,CAGLIARI AUTOSTAZIONE ARST,,39.21460,9.108746,6,
B_1001,1001,CAGLIARI VIALE MONASTIR 23,,39.23552,9.097006,6,
B_1002,1002,CAGLIARI VIA IS MAGLIAS-MEUCCI,,39.22802,9.108963,6,
B_1046,1046,CAGLIARI BUON PASTORE,,39.22196,9.126342,6,
B_1132,1132,CAGLIARI PIAZZA GIOVANNI XXIII,,39.227278,9.1263171,6,
B_1164,1164,CAGLIARI V.LE COLOMBO-ALBERTI,,39.20939,9.118478,6,
B_1165,1165,CAGLIARI PIAZZA CENTOMILA BONARIA,,39.20747,9.124397,6,
B_1166,1166,CAGLIARI VIA CASTIGLIONE,,39.22883,9.128324,6,
B_1168,1168,CAGLIARI CONSERVATORIO,,39.22487,9.121134,6,
B_1171,1171,CAGLIARI VIALE MERELLO,,39.22342,9.108621,6,
B_1172,1172,CAGLIARI  VIA IS MAGLIAS - AZUNI,,39.23154,9.104659,6,
B_1173,1173,CAGLIARI VIA CORNALIAS-QUIRRA,,39.24033,9.107528,6,
B_1174,1174,CAGLIARI VIA CORNALIAS-SULCIS,,39.24250,9.105602,6,
B_1175,1175,CAGLIARI VIA PIERO DELLA FRANCESCA,,39.25068,9.103111,6,
B_1222,1222,CAGLIARI VIALE BONARIA RAI,,39.21012,9.122337,6,
B_1223,1223,CAGLIARI VIALE LA PLAIA-OVIESSE,,39.21493,9.104483,6,
B_1227,1227,CAGLIARI VIA RIVA DI PONENTE,,39.2141,9.10408,6,
B_1246,1246,SS131 BV. VIA GHERARDO DELLE NOTTI - TRANSITO,,39.25410,9.091642,6,
B_1256,1256,CAGLIARI V.LE TRIESTE-EE.LL.,,39.2250,9.101034,6,
B_1257,1257,CAGLIARI V.LE SANT'AVENDRACE 252,,39.23250,9.097639,6,
B_1268,1268,CAGLIARI PIAZZA REPUBBLICA,,39.2160,9.124823,6,
B_1347,1347,CAGLIARI VIA ROMA F.S.,,39.216077,9.1088172,6,
B_1454,1454,CAGLIARI PIAZZA SAN MICHELE,,39.2382,9.099735,6,
B_1458,1458,CAGLIARI PIAZZA SAN MICHELE,,39.23744,9.100457,6,
B_1620,1620,CAGLIARI VIA IS MIRRIONIS,,39.23705,9.105953,6,
B_1621,1621,CAGLIARI PIAZZA REPUBBLICA,,39.21716,9.124944,6,
B_1622,1622,CAGLIARI PIAZZA DEFFENU,,39.21094,9.11584,6,
B_1624,1624,CAGLIARI VIA SONNINO LEG. CC,,39.21557,9.1204,6,
B_1626,1626,CAGLIARI VIA BACAREDDA-MERCATO,,39.22332,9.121676,6,
B_1627,1627,CAGLIARI VIALE CIUSA,,39.2295,9.120007,6,
B_1637,1637,CAGLIARI PIAZZA MATTEOTTI  - ESTERNO,,39.2149,9.109151,6,
B_1693,1693,CAGLIARI VIALE MARCONI,,39.23571,9.140202,6,
B_1722,1722,CAGLIARI PORTO,,39.21427,9.110459,6,
B_8283,8283,CAGLIARI MOTEL AGIP,,39.2407,9.119,6,
B_10077,10077,CAGLIARI VIA LIGURIA-PACINOTTI,,39.22926,9.117689,6,
B_10086,10086,CAGLIARI VIA ROMA 86,,39.21936,9.104844,6,
B_10087,10087,CAGLIARI VIALE TRIESTE-ASS.TO TURISMO,,39.2204,9.103426,6,
B_10088,10088,CAGLIARI VIALE MONASTIR 151,,39.24071,9.096874,6,
B_10111,10111,CAGLIARI VIA DEL FANGARIO,,39.24301,9.09391,6,
B_10134,10134,CAGLIARI VIALE BONARIA-B.D.S.,,39.21078,9.120114,6,
B_10135,10135,CAGLIARI VIA BROTZU-CTM,,39.25190,9.101502,6,
B_10140,10140,CAGLIARI VIA SAN BENEDETTO-POSTE,,39.22465,9.128884,6,
B_10142,10142,CAGLIARI VIALE MARCONI-SCUOLE MEDIE,,39.22977,9.133065,6,
B_11377,11377,CAGLIARI VIA PERETTI-INPS,,39.24978,9.1141192,6,
B_1306,1306,POETTO OSPEDALE MARINO,,39.21302,9.172892,0,
B_1944,1944,VIALE LUNGOMARE POETTO OSP. VECCHIO,,39.21149,9.171392,0,
B_1945,1945,VIALE LUNGOMARE POETTO CALYPSO BEACH,,39.20973,9.169203,0,
B_1653,1653,POETTO VIA LUNGOSALINE 39-FARMACIA,,39.19888,9.158779,0,
B_1655,1655,POETTO VIA LUNGOSALINE 27-ANG. GORGONA,,39.19696,9.158192,0,
B_1946,1946,VIALE LUNGOMARE POETTO SESTA AREA,,39.20805,9.167127,0,
B_1947,1947,VIALE LUNGOMARE POETTO IL TWIST,,39.20641,9.165121,0,
B_1948,1948,POETTO VIA LUNGOSALINE-CHIESA,,39.20477,9.162116,0,
B_1949,1949,POETTO  VIA LUNGOSALINE-MARKET,,39.20176,9.160177,0,
B_1990,1990,MONSERRATO VIA CARACALLA,,39.25222,9.134475,6,
B_1167,1167,PIRRI VIA VESALIO-METRO,,39.24171,9.136148,6,
B_1170,1170,PIRRI VIA MONTECASSINO GIUA,,39.2431,9.119439,6,
B_1628,1628,CAGLIARI VIA CALAMATTIA,,39.23993,9.120847,6,
B_1991,1991,PIRRI VIA ITALIA CTM,,39.24677,9.129719,6,
B_1993,1993,PIRRI VIA R.VILLASANTA CTM 244,,39.24082,9.125937,6,
B_11383,11383,PIRRI EX STAZIONE FDS,,39.251112,9.1339277,6,
B_11387,11387,PIRRI VIA SANTA M. CHIARA 76,,39.243797,9.1237973,6,
B_11391,11391,PIRRI VIA RIVA VILLASANTA 230,,39.237732,9.1250149,6,
B_1652,1652,VIALE LUNGOMARE DEL GOLFO OTTAGONO,,39.21625,9.177762,0,
B_2027,2027,PIRRI VIA CUGUSI-SCUOLE,,39.24324,9.139394,6,
B_1329,1329,TISCALI SA ILLETTA,,39.22663,9.071297,6,
B_1714,1714,CAPOTERRA LOC. SA CRUXIXEDA,,39.17092,8.982879,9,
B_1715,1715,CAPOTERRA VIA CAGLIARI 52,,39.17372,8.976418,9,
B_1716,1716,CAPOTERRA VIA CAGLIARI 112,,39.17516,8.972725,9,
B_1717,1717,CAPOTERRA PIAZZA CADUTI,,39.17578,8.968661,9,
B_1718,1718,CAPOTERRA PIAZZA VERDE,,39.17309,8.970306,9,
B_1719,1719,CAPOTERRA VIA MAZZIN 54,,39.17218,8.973988,9,
B_1720,1720,CAPOTERRA VIA MAZZINI 114,,39.17194,8.977542,9,
B_2030,2030,CAPOTERRA VIA TREXENTA,,39.17922,8.977536,9,
B_2031,2031,CAPOTERRA LICEO,,39.16939,8.965874,9,
B_1708,1708,CAPOTERRA S.ROSA-CAMPO SPORTIVO,,39.17556,8.962606,9,
B_1712,1712,CAPOTERRA RIFORNITORE AGIP,,39.16066,9.001378,9,
B_1713,1713,CAPOTERRA COCCUFORRU,,39.16885,8.988193,9,
B_1093,1093,FRUTTI D'ORO,,39.14358,9.009634,29,
B_1224,1224,CAPOTERRA BIVIO LOTT.PICCIAU,,39.14889,9.014292,29,
B_10052,10052,LIDO DI CAPOTERRA,,39.15656,9.023727,29,
B_1129,1129,SU LOI FRUTTI D'ORO,,39.13732,9.009047,29,
B_1453,1453,SU SPANTU 2,,39.13089,9.008703,29,
B_1092,1092,LA MADDALENA SPIAGGIA,,39.15207,9.020207,29,
B_1147,1147,RESIDENZA DEL SOLE VIA SERPENTARA,,39.15566,9.01263,29,
B_1203,1203,CAMISA,,39.2961,9.52289,41,
B_1210,1210,SP 18 BIVIO CALA PIRA,,39.1765,9.563437,0,
B_1209,1209,CALA SINZIAS,,39.19570,9.559271,7,
B_10562,10562,SP 19 LOC. SITO` 1,,39.22279,9.5321,10,
B_10563,10563,SP 19 LOC. SITO` 2,,39.23028,9.520385,10,
B_1027,1027,CUILI MANNU,,39.29895,9.504506,41,
B_10575,10575,CUILI MANNU 2,,39.30250,9.502838,41,
B_10576,10576,CUILI MANNU 3,,39.30643,9.504444,41,
B_1034,1034,MASONE PARDU,,39.25613,9.516415,10,
B_10565,10565,SP 20 PODERE PILLONI,,39.24981,9.520425,10,
B_1032,1032,MONTE GRUTTAS,,39.28456,9.509655,41,
B_1036,1036,SAN PIETRO,,39.20975,9.542275,10,
B_1656,1656,SANT`ELMO,,39.21667,9.563318,10,
B_10585,10585,SP 20 BAR ATZORI,,39.27880,9.534494,41,
B_1657,1657,VILLAGGIO SANTA GIUSTA,,39.23503,9.5654,10,
B_1035,1035,CASTIADAS CENTRO,,39.23627,9.499677,10,
B_1028,1028,OLIA SPECIOSA,,39.27886,9.528234,41,
B_1033,1033,SA BADI,,39.26681,9.499152,41,
B_10219,10219,SS 130 DIR SARDAFLORA,,39.33118,8.988595,13,
B_1013,1013,DECIMOMANNU VIA NAZIONALE,,39.30899,8.9673,13,
B_10216,10216,DECIMOMANNU VIA E. D'ARBOREA,,39.30879,8.969782,13,
B_1019,1019,DECIMOMANNU F.S.,,39.3048,8.966233,13,
B_1438,1438,DECIMOMANNU FR VILLAGGIO AZZURRO,,39.31431,8.958974,13,
B_1110,1110,DECIMOPUTZU VIA MONTE GRANATICO 61,,39.33550,8.916031,14,
B_10299,10299,DECIMOPUTZU VIA VILLASPECIOSA FR.45,,39.33293,8.918675,14,
B_10300,10300,DECIMOPUTZU VIA VILLASPECIOSA FR. 9,,39.33436,8.918453,14,
B_10302,10302,DECIMOPUTZU PIAZZA IV NOVEMBRE,,39.33661,8.914134,14,
B_10303,10303,DECIMOPUTZU VIA VILLACIDRO 44,,39.33762,8.912671,14,
B_10304,10304,DECIMOPUTZU VIA SAN BASILIO 65,,39.33658,8.907798,14,
B_1074,1074,DOLIANOVA,,39.37660,9.175929,15,
B_11102,11102,DOLIANOVA CORSO REPUBBLICA-Q8,,39.38295,9.174196,15,
B_1058,1058,DOLIANOVA STAZIONE,,39.375748,9.1699012,15,
B_11105,11105,DOLIANOVA CORSO REPUBBLICA 256,,39.38551,9.172746,15,
B_11106,11106,DOLIANOVA PIAZZA MERCATO,,39.38021,9.176019,15,
B_11100,11100,CAMPIONNA SPIAGGIA,,38.91397,8.780523,0,
B_1120,1120,SP 71 BAIA CHIA,,38.89574,8.869821,11,
B_1119,1119,CHIA BIVIO,,38.92115,8.892431,11,
B_11083,11083,SS 195 KM 49,,38.94183,8.847582,16,
B_11078,11078,CHIA MARKET SIRIO,,38.90810,8.886419,11,
B_11079,11079,CHIA BAR TABACCHI,,38.90354,8.883151,11,
B_1118,1118,DOMUS DE MARIA,,38.9415,8.865064,16,
B_11082,11082,DOMUSDEMARIA VIA PROVINCIALE FR. 42,,38.94294,8.861681,16,
B_11988,11988,DONORI VIALE EUROPA,,39.431349,9.1385364,17,
B_1864,1864,DONORI,,39.432318,9.1262798,17,
B_11982,11982,DONORI VIA VITT. EMANUELE 20,,39.432520,9.1309047,17,
B_1605,1605,AEROPORTO ELMAS PARTENZE,,39.25421,9.060453,18,
B_1615,1615,AEROPORTO ELMAS ARRIVI,,39.25336,9.061194,18,
B_1015,1015,ELMAS VIA SULCITANA 98,,39.26839,9.047529,18,
B_1651,1651,IST.AGRARIO-SS 130 R,,39.26205,9.062767,18,
B_1642,1642,ELMAS IST. AGRARIO DUCA DEGLI ABRUZZI-CORTILE,,39.26662,9.066666,18,
B_11131,11131,ESCALAPLANO CIMITERO,,39.62923,9.356385,19,
B_1890,1890,SCLAMORIS,,39.657873,9.3883671,19,
B_5192,5192,TENUTA CONTU,,39.65775,9.385674,19,
B_5191,5191,ESCALAPLANO,,39.62435,9.35234,19,
B_11127,11127,ESCALAPLANO VIA SAVOIA FR 33,,39.62216,9.347529,19,
B_11129,11129,ESCALAPLANO SCUOLE,,39.62667,9.355509,19,
B_1878,1878,MURTAS,,39.665046,9.3511125,19,
B_5307,5307,ESCOLCA,,39.6990,9.123744,20,
B_11432,11432,ESCOLCA SCUOLA MATERNA,,39.69872,9.118926,20,
B_1863,1863,CORTELUCETA,,39.715577,9.3413818,21,
B_1867,1867,GENN`E CAIDDU,,39.735231,9.318267,21,
B_1866,1866,ESTERZILI VIA ROMA-SP53,,39.781249,9.2823243,21,
B_1887,1887,ESTERZILI CASERMA CARABINIERI,,39.778783,9.2848715,21,
B_12163,12163,ESTERZILI VIA E. D`ARBOREA 1,,39.779446,9.282749,21,
B_5309,5309,GERGEI,,39.696821,9.0959802,23,
B_12422,12422,GERGEI COMUNE,,39.699077,9.1020253,23,
B_1869,1869,GESICO,,39.615249,9.1083328,24,
B_12443,12443,GESICO VIA SANT`AMATORE 32,,39.617618,9.1093851,24,
B_1871,1871,GONI,,39.578075,9.2866797,25,
B_12583,12583,GONI VIA ROMA 46,,39.580001,9.2841958,25,
B_1105,1105,GUAMAGGIORE PIAZZA MATER DEI 4,,39.56897,9.073753,26,
B_12703,12703,GUAMAGGIORE VIA CENTRALE 107,,39.569484,9.0759543,26,
B_1107,1107,GUASILA VIA ROMA 52,,39.55977,9.045003,27,
B_10931,10931,GUASILA VIA SEGARIU 91,,39.55881,9.040218,27,
B_10932,10932,GUASILA VIA GUAMAGGIORE 24,,39.565327,9.047847,27,
B_10933,10933,GUASILA VIA ROMA 100,,39.55810,9.045654,27,
B_10934,10934,GUASILA VIA MELAS 65,,39.557,9.047155,27,
B_12723,12723,GUASILA VIA CAGLIARI 51,,39.558173,9.0474812,27,
B_12903,12903,ISILI PISCINA COMUNALE,,39.748148,9.1106184,28,
B_1873,1873,ISILI STAZIONE ARST,,39.738478,9.1129254,28,
B_5018,5018,ISILI PIAZZA SAN GIUSEPPE,,39.7417,9.106243,28,
B_5239,5239,ISILI PIAZZA MURA,,39.74268,9.107972,28,
B_11434,11434,ISILI VIA ZAURRAI FR. 4,,39.73656,9.110577,28,
B_11436,11436,ISILI CASERMA C.C.,,39.74537,9.107089,28,
B_1899,1899,Z.I. PERD`E CUADDU,,39.788073,9.1267993,28,
B_1009,1009,MANDAS,,39.65312,9.130527,31,
B_1875,1875,MANDAS STAZIONE,,39.659997,9.1316243,31,
B_11429,11429,MANDAS VIA CAGLIARI 212,,39.65842,9.130176,31,
B_10156,10156,VILLAGGIO DELLE ROSE,,39.26774,9.308155,32,
B_10157,10157,SAN BASILIO SS 125 KM 22.200,,39.27603,9.318468,32,
B_10180,10180,VILLAGGIO DEI GIGLI,,39.28078,9.328038,32,
B_1928,1928,MARACALAGONIS VIA CAGLIARI,,39.28674,9.22606,33,
B_1929,1929,MARACALAGONIS VIA NAZIONALE 28,,39.28605,9.227533,33,
B_1930,1930,MARACALAGONIS VIA NAZIONALE 130,,39.2829,9.228636,33,
B_1931,1931,MARACALAGONIS FR. CANT.SOCIALE,,39.27993,9.229356,33,
B_1040,1040,TORRE DELLE STELLE-CANNESISA,,39.15678,9.399995,79,
B_10537,10537,SP 17 COUNTRY CLUB,,39.16530,9.387589,79,
B_2019,2019,MONASTIR VIA NAZIONALE 1,,39.38876,9.041618,34,
B_2020,2020,MONASTIR VIA NAZIONALE 99,,39.38455,9.044611,34,
B_2021,2021,MONASTIR VIA NAZIONALE 179,,39.38154,9.045643,34,
B_1602,1602,CITTADELLA UNIVERSITARIA,,39.26870,9.122624,35,
B_1634,1634,POLICLINICO UNIVERSITARIO,,39.27136,9.127185,35,
B_1324,1324,MONSERRATO IST. BESTA E SCANO,,39.25031,9.142294,35,
B_1876,1876,MONSERRATO V.SAN GOTTARDO,,39.264851,9.1440155,35,
B_1975,1975,MONSERRATO VIA SAN FULGENZIO,,39.26018,9.133018,35,
B_1988,1988,MONSERRATO IST.ALBERGHIERO,,39.26053,9.127188,35,
B_1995,1995,MONSERRATO VIA PORTO BOTTE-CANTINA SOCIALE,,39.25265,9.134927,35,
B_1996,1996,MONSERRATO VIA PORTO BOTTE 10,,39.25919,9.134337,35,
B_10124,10124,MONSERRATO VIA G. CESARE-CIMITERO,,39.265577,9.139102,35,
B_10125,10125,MONSERRATO VIA SAN GOTTARDO-METRO,,39.26370,9.141939,35,
B_13722,13722,MONSERRATO VIA SAN VALERIANO-CTM,,39.25645,9.1455514,35,
B_1202,1202,COLOSTRAI,,39.36097,9.598473,0,
B_1658,1658,COSTA REI HOTEL FREE BEACH,,39.25575,9.573482,12,
B_10432,10432,SS 125 KM 61.400 AZIENDA ZOOTECNICA,,39.40563,9.601491,36,
B_2024,2024,MURAVERA ISTITUTO AGRARIO,,39.41391,9.59601,36,
B_1190,1190,SAN GIOVANNI SPIAGGIA,,39.39619,9.611026,0,
B_1208,1208,COSTA REI MONTE NAI,,39.26569,9.576055,12,
B_1255,1255,COSTA REI SU NURAXI,,39.24875,9.569751,12,
B_10593,10593,COSTA REI VIA ICHNUSA 138,,39.25278,9.570954,12,
B_1024,1024,MURAVERA VIA ROMA 42,,39.41947,9.581257,36,
B_2025,2025,MURAVERA VIA ROMA 8 - LICEO,,39.41845,9.583026,36,
B_2026,2026,MURAVERA VIA ROMA-OSPEDALE,,39.4216,9.569994,36,
B_1285,1285,MURAVERA VIA ROMA FR.172,,39.42120,9.573509,36,
B_10438,10438,MURAVERA CONSORZIO AGRARIO,,39.42381,9.565226,36,
B_1095,1095,NURAGUS VIA ROMA-SCUOLE,,39.77776,9.038734,37,
B_11421,11421,NURAGUS V.LE STAZIONE 23,,39.77861,9.037216,37,
B_11424,11424,NURAGUS VIA ROMA 45,,39.77644,9.036491,37,
B_5017,5017,NURALLAO,,39.79130,9.079258,38,
B_11438,11438,NURALLAO VIA ALDO MORO 12,,39.78784,9.078133,38,
B_1563,1563,VILLAGRECA CENTRO,,39.46260,8.999989,39,
B_1083,1083,CEMENTERIA,,39.46851,9.026041,39,
B_1021,1021,NURAMINIS FR MUNICIPIO,,39.44133,9.012992,39,
B_10841,10841,NURAMINIS VIA NAZIONALE 297,,39.44744,9.009646,39,
B_10842,10842,NURAMINIS VIA NAZIONALE 170,,39.44495,9.011278,39,
B_10844,10844,NURAMINIS VIA NAZIONALE FR 71,,39.43927,9.015618,39,
B_10845,10845,NURAMINIS VIA NAZIONALE 12,,39.43661,9.016983,39,
B_1881,1881,NURRI STAZIONE ARST,,39.721321,9.2297149,40,
B_5290,5290,NURRI,,39.710728,9.2284548,40,
B_14257,14257,NURRI CORSO ITALIA 22,,39.708551,9.2310841,40,
B_14261,14261,NURRI CORSO ITALIA 272,,39.715429,9.2294154,40,
B_14262,14262,NURRI ZONA INDUSTRIALE,,39.723719,9.2244955,40,
B_1889,1889,SANTO STEFANO,,39.63770,9.2955843,42,
B_5291,5291,ORROLI,,39.694899,9.24928,42,
B_14703,14703,ORROLI VIA ROMA 22,,39.689854,9.2531804,42,
B_14704,14704,ORROLI VIALE EUROPA 5,,39.689032,9.2501335,42,
B_14706,14706,ORROLI STAZIONE,,39.692819,9.2487243,42,
B_1106,1106,ORTACESUS,,39.53924,9.085766,43,
B_10945,10945,PIMENTEL VIA ROMA FR. 1,,39.48304,9.068174,44,
B_1081,1081,PIMENTEL VIA ROMA 46,,39.4843,9.066594,44,
B_10947,10947,PIMENTEL VIA ROMA FR. 91,,39.48725,9.065108,44,
B_10948,10948,PIMENTEL VIA ROMA 126,,39.48825,9.062446,44,
B_1122,1122,FORTE VILLAGE,,38.93721,8.929917,478,
B_11073,11073,CALA VERDE,,38.93981,8.93288,478,
B_11075,11075,SS 195 KM 40,,38.93250,8.922826,478,
B_1220,1220,PULA PARCO SC.E TECN. - TORRE,,38.99219,8.944574,45,
B_1221,1221,PULA PARCO SC. E TEC - ED.1,,38.99041,8.936897,45,
B_1225,1225,PULA PARCO SC. E TEC - ED.2,,38.99038,8.930442,45,
B_1226,1226,PULA PARCO SC. E TECN. - ED.5,,38.99096,8.923837,45,
B_10353,10353,PULA VIALE EUROPA,,39.01629,9.004297,46,
B_1123,1123,SANTA MARGHERITA,,38.97247,8.973311,53,
B_11069,11069,SS 195 EX D C K.,,38.97731,8.977257,53,
B_11074,11074,SS 195  KM 32.800 DISTRIBUTORE TAMOIL,,38.97972,8.979489,53,
B_1124,1124,PULA,,39.00414,9.000104,46,
B_1264,1264,PULA,,39.00512,9.000682,46,
B_10352,10352,PULA VIA NORA DISTRIBUTORE,,39.01476,9.00164,46,
B_10399,10399,PULA VIALE SEGNI 6,,39.01472,9.001941,46,
B_10400,10400,PULA VIALE SEGNI IST.ALBERGHIERO,,39.01250,9.003082,46,
B_10401,10401,PULA VIA CORINALDI 38,,39.00732,9.002068,46,
B_1121,1121,CAPO BLU,,38.92674,8.912081,478,
B_1042,1042,IS MORTORIUS,,39.19907,9.327195,22,
B_10535,10535,TERRA MALA,,39.19466,9.337168,22,
B_1942,1942,VIALE LUNGOMARE DEL GOLFO FR. STABILIM. VV.FF.,,39.22072,9.186903,47,
B_1937,1937,VIALE LUNGOMARE DEL GOLFO LIDO MEDITERRANEO,,39.22546,9.200957,0,
B_1939,1939,VIALE LUNGOMARE DEL GOLFO  LIDO GUARDIA DI FINANZA,,39.22090,9.187785,0,
B_1940,1940,VIALE LUNGOMARE DEL GOLFO LIDO POLIZIA,,39.21856,9.183127,0,
B_1041,1041,CANT. GEREMEAS,,39.17266,9.379155,79,
B_1044,1044,CANT. FLUMINI,,39.21893,9.287542,22,
B_1259,1259,FLUMINI,,39.21773,9.288788,22,
B_1933,1933,TENNIS CLUB MARGINE ROSSO,,39.228,9.237867,0,
B_1934,1934,MARGINE ROSSO,,39.22999,9.223612,22,
B_10525,10525,SP 17 HOTEL SETAR,,39.22120,9.253481,22,
B_1600,1600,PITZ`E SERRA,,39.24062,9.213203,485,
B_1043,1043,PONTE CAPITANA,,39.20983,9.309072,22,
B_10532,10532,CAMPEGGIO PINI E MARE,,39.20545,9.319117,22,
B_1045,1045,QUARTU S.E.VIA CAGLIARI 53,,39.243,9.181424,47,
B_1987,1987,QUARTU S.E. PIAZZA S.ELENA,,39.24248,9.183192,47,
B_1998,1998,QUARTU S.E. VIA COLOMBO ASL,,39.24057,9.178219,47,
B_10144,10144,QUARTU S.E. CARREFOUR,,39.24295,9.16761,47,
B_10149,10149,QUARTU S.E. VIA MARCONI 562,,39.24452,9.189933,47,
B_10151,10151,QUARTU S.E. FRONTE LECLERC,,39.24719,9.194842,47,
B_10189,10189,QUARTU S.E. VIA SICILIA 22,,39.24481,9.189044,47,
B_10191,10191,QUARTU S.E. VIA MARCONI 230,,39.24163,9.178685,47,
B_10264,10264,QUARTU S.E. V.LE COLOMBO-EX MUNICIPIO,,39.23356,9.185536,47,
B_1050,1050,CANT. CORONGIU SS125,,39.26016,9.285346,49,
B_10153,10153,SS 125 CORONGIU - SERRE,,39.25977,9.275346,49,
B_1075,1075,SANT'ANDREA FRIUS,,39.47705,9.170147,51,
B_11107,11107,SANT'ANDREA FRIUS VIA CAGLIARI FR 61,,39.47410,9.171256,51,
B_11109,11109,SANT'ANDREA FRIUS CASERMA CC,,39.47973,9.172956,51,
B_11110,11110,SAN BASILIO CIRCONVALLAZIONE,,39.53497,9.195458,52,
B_11111,11111,SAN BASILIO VIA DANTE SN,,39.53781,9.19336,52,
B_11112,11112,SAN BASILIO CASERMA CC,,39.53809,9.20076,52,
B_1636,1636,SAN BASILIO,,39.5382,9.197748,52,
B_1077,1077,SANTA LUCIA GERREI,,39.50178,9.312396,54,
B_1065,1065,SAN NICOLO' GERREI,,39.49589,9.30167,54,
B_11117,11117,SAN NICOLO' GERREI VIA UMBERTO I 131,,39.49728,9.307689,54,
B_10208,10208,SP 4 RIVENDITA GAS,,39.33978,9.024322,56,
B_10209,10209,SP 4 CA,,39.34683,9.017605,56,
B_10226,10226,SP 4 TAMOIL,,39.35127,9.013823,56,
B_1016,1016,SAN SPERATE VIA CROCE SANTA 7,,39.35922,9.00397,56,
B_1247,1247,SAN SPERATE VIA RISORGIMENTO 51,,39.35774,9.004492,56,
B_10210,10210,SAN SPERATE VIA CAGLIARI 89,,39.35500,9.010551,56,
B_10220,10220,SAN SPERATE VIA DECIMO 97,,39.35208,9.00484,56,
B_10224,10224,SAN SPERATE SCUOLE ELEMENTARI,,39.35718,9.007324,56,
B_10322,10322,SAN SPERATE VIA MONASTIR 80,,39.36264,9.00693,56,
B_1054,1054,MONTE ACUTO,,39.35026,9.482731,55,
B_10448,10448,SAN VITO GABBIOTTO ANAS,,39.43262,9.553991,57,
B_10579,10579,SP 20 BAR GALLO NERO,,39.34229,9.539399,55,
B_1025,1025,SAN PRIAMO SS 125,,39.35848,9.560253,55,
B_1258,1258,SAN PRIAMO VIA CHIESA,,39.35808,9.560285,55,
B_1022,1022,SAN VITO CABINA ENEL,,39.45030,9.540812,57,
B_1260,1260,SAN VITO FUNTANA IRI,,39.44015,9.542291,57,
B_10449,10449,SAN VITO VIA NAZIONALE 10,,39.43659,9.544506,57,
B_10452,10452,SAN VITO VIA NAZIONALE 276,,39.44592,9.540327,57,
B_1026,1026,TUERRA,,39.33262,9.525378,55,
B_1888,1888,SANTA MARIA,,39.757653,9.2502765,58,
B_1885,1885,SADALI STAZIONE ARST,,39.814778,9.2698315,58,
B_1886,1886,SADALI,,39.814167,9.2728785,58,
B_1082,1082,SAMATZAI,,39.48354,9.034837,59,
B_10949,10949,SAMATZAI VIA ROMA 98,,39.48245,9.038139,59,
B_10951,10951,SAMATZAI VIA CAGLIARI 4,,39.48162,9.033709,59,
B_10952,10952,SAMATZAI VIA CAGLIARI 54,,39.47926,9.033289,59,
B_1144,1144,PERD'E SALI VIA G. DELEDDA 23,,39.03531,9.013403,482,
B_10366,10366,SS 195 EX TAVERNETTA,,39.05789,8.997839,60,
B_1638,1638,VILLAGGIO MORATTI,,39.05363,8.995169,60,
B_1128,1128,VILLA D'ORRI,,39.11182,9.007669,91,
B_10363,10363,SS 195 BLU FAN,,39.04486,8.998125,60,
B_10359,10359,PERD`E SALI,,39.03223,9.028676,482,
B_1143,1143,PORTO COLUMBU,,39.02717,9.02589,482,
B_10361,10361,PORTO COLUMBU VIA MAESTRALE 28,,39.02851,9.027725,482,
B_1126,1126,SARROCH VIA CAGLIARI 47,,39.0667,9.010785,60,
B_10368,10368,SARROCH VIA VERDI - IVECO,,39.06421,9.004751,60,
B_10369,10369,SARROCH SCUOLA MATERNA,,39.06701,9.007745,60,
B_10371,10371,SARROCH VIA CAGLIARI 3,,39.06913,9.010727,60,
B_10390,10390,SARROCH VIA CAGLIARI 138,,39.06345,9.007375,60,
B_1401,1401,SARROCH Z.I. ENICHEM,,39.08804,9.013172,60,
B_1402,1402,SARROCH Z.I. SARAS,,39.08568,9.013875,91,
B_1047,1047,SELARGIUS  VIA ROMA 74,,39.25614,9.16877,61,
B_1983,1983,SELARGIUS VIA ISTRIA COMUNE,,39.25363,9.16548,61,
B_2000,2000,SELARGIUS VIA ISTRIA FR CIV 156,,39.25117,9.163388,61,
B_2028,2028,SELARGIUS SALESIANI,,39.2462,9.158382,61,
B_2029,2029,SELARGIUS LICEO PITAGORA,,39.24738,9.160019,61,
B_2032,2032,SELARGIUS VIA NENNI 11,,39.26014,9.16203,61,
B_2033,2033,SELARGIUS VIA E.LUSSU 59,,39.25758,9.159984,61,
B_10238,10238,SELARGIUS VIA ROMA-SANT'ANTONIO,,39.25828,9.171286,61,
B_10239,10239,SELARGIUS CIMITERO,,39.26017,9.173088,61,
B_1915,1915,SELARGIUS VIA DEL LAVORO - DOMENICANI,,39.26454,9.17566,61,
B_1609,1609,CAGLIARI OSPEDALE BROTZU,,39.25123,9.108848,61,
B_1894,1894,SEUNI,,39.582828,9.1188672,62,
B_16345,16345,SELEGAS VIA G. MARCONI,,39.5695,9.101877,62,
B_1851,1851,ARIXI,,39.534933,9.1537182,63,
B_17175,17175,SISINI VIA PROVINCIALE 6,,39.565248,9.164181,73,
B_1006,1006,SENORBI' PIAZZA S.ANTONIO 1,,39.53227,9.130615,63,
B_1317,1317,SENORBI'  ISTITUTO AGRARIO,,39.52430,9.129995,63,
B_1891,1891,SENORBI' STAZIONE,,39.530524,9.134335,63,
B_10937,10937,SENORBI' VIA CARLO SANNA FR 68,,39.52885,9.132063,63,
B_10939,10939,SENORBI' VIA CARLO SANNA 260,,39.53808,9.130591,63,
B_16471,16471,SENORBI' VIA SICILIA 40,,39.534766,9.127722,63,
B_1802,1802,SISINI,,39.566165,9.1653241,73,
B_1078,1078,SERDIANA,,39.374902,9.162701,64,
B_11076,11076,SERDIANA VIA ROMA 9,,39.370080,9.1568505,64,
B_11077,11077,SERDIANA VIALE DANTE 11,,39.377252,9.1571684,64,
B_11080,11080,SERDIANA PIAZZA SAN SALVATORE,,39.37401,9.156674,64,
B_11081,11081,SERDIANA VIA MANNO,,39.373448,9.1583673,64,
B_11085,11085,SERDIANA VIA DE GASPERI,,39.37551,9.1606475,64,
B_1892,1892,SERRI,,39.700346,9.1460246,65,
B_16547,16547,SERRI VIA SAN BASILIO 27,,39.703633,9.1474313,65,
B_16548,16548,SERRI VIA ROMA 134,,39.698777,9.1466978,65,
B_1199,1199,CORTE DEL SOLE EX SS131,,39.30354,9.064172,66,
B_10207,10207,SP 4 AZIENDA AGRICOLA,,39.33406,9.03409,66,
B_10121,10121,SESTU ANTUOFERMO,,39.30540,9.063442,66,
B_1163,1163,SESTU CORTEXANDRA-EX SS 131,,39.28853,9.069794,66,
B_10120,10120,SESTU FORNACI SCANU,,39.28194,9.074492,66,
B_1194,1194,SP 8 ESAF,,39.28325,9.079343,66,
B_1196,1196,SP 8 SECAUTO,,39.28056,9.077241,66,
B_1003,1003,CANT. SESTU,,39.29650,9.06652,66,
B_1177,1177,SP 8 LOTTIZZAZIONE ATENEO,,39.28507,9.098428,0,
B_1178,1178,SESTU VIA MONSERRATO-DEDALO I,,39.29197,9.095692,66,
B_1182,1182,SESTU VIA GORIZIA 70,,39.30154,9.093788,66,
B_1193,1193,SESTU VIA CAGLIARI 260,,39.29313,9.08637,66,
B_1228,1228,SESTU VIA VITTORIO VENETO 205,,39.29192,9.088943,66,
B_1244,1244,SESTU VIA MONSERRATO 117,,39.29642,9.094459,66,
B_1245,1245,SESTU VIA MONSERRATO 189 EDICOLA,,39.29389,9.095242,66,
B_1607,1607,SESTU VIA SAN GEMILIANO 131,,39.30650,9.090698,66,
B_1648,1648,SESTU VIA CAGLIARI 118,,39.29723,9.090909,66,
B_1905,1905,SESTU VIA SAN SALVATORE 44,,39.30371,9.092087,66,
B_1910,1910,SESTU VIA MICHELANGELO 61,,39.29336,9.088562,0,
B_1911,1911,SESTU VIA VITT. VENETO-CHIESA,,39.29399,9.089966,66,
B_1912,1912,SESTU VIA MONTGOLFIER,,39.29729,9.09353,66,
B_1972,1972,SESTU VIA ROMA,,39.30050,9.092383,66,
B_10119,10119,SESTU VIA COSTA 71,,39.30684,9.086619,66,
B_10122,10122,SESTU VIA MONSERRATO 283,,39.28982,9.096085,66,
B_10123,10123,SESTU VIA V.VENETO-VIA TRIPOLI,,39.29671,9.091685,66,
B_1916,1916,SETTIMO S.P. VIA S.SALVATORE 32,,39.28701,9.186477,67,
B_1918,1918,SETTIMO S.P. VIA ROMA FR. 194,,39.29295,9.189398,67,
B_1959,1959,SETTIMO S.P. VIA GRAMSCI 33,,39.28945,9.186564,67,
B_1960,1960,SETTIMO S.P. VIA S.SALVATORE 53,,39.28695,9.186326,67,
B_1861,1861,CANT. GENNA UASSA,,39.857484,9.2703845,68,
B_1883,1883,PONTE FLUMENDOSA,,39.892346,9.1921653,68,
B_1893,1893,SEULO,,39.86890,9.2363801,68,
B_16658,16658,SEULO PIAZZA ALDO MORO,,39.86869,9.2386946,68,
B_16662,16662,SEULO VIA ROMA 1,,39.872348,9.2339247,68,
B_8015,8015,CAMPANISISSA,,39.20286,8.7742,69,
B_8061,8061,PITTIU,,39.23621,8.815167,69,
B_10235,10235,SILIQUA VIA CIXERRI-VIA F. GIOIA,,39.29898,8.808317,69,
B_10696,10696,SS 293 TUVOI,,39.3,8.7995,69,
B_8082,8082,SILIQUA VIA CIXERRI 27,,39.29896,8.813333,69,
B_8131,8131,SILIQUA FS,,39.29753,8.813433,69,
B_8132,8132,SILIQUA VIALE MARCONI,,39.2995,8.812883,69,
B_10636,10636,SILIQUA SAN GIUSEPPE,,39.3002,8.801433,69,
B_10637,10637,SILIQUA VIA DELEDDA 57,,39.30261,8.808983,69,
B_1064,1064,SILIUS,,39.51875,9.29487,70,
B_11113,11113,SILIUS VIA CAGLIARI 57,,39.51735,9.291642,70,
B_11115,11115,SILIUS MUNICIPIO,,39.51718,9.29562,70,
B_1053,1053,CAMPUOMU,,39.30834,9.398734,72,
B_10158,10158,VILLAGGIO DEI GIGLI,,39.28151,9.329723,72,
B_10160,10160,VILLAGGIO DELLE MIMOSE,,39.29011,9.348595,72,
B_1039,1039,SOLANAS,,39.14225,9.432302,75,
B_10159,10159,BURRANCA,,39.28511,9.337798,72,
B_1051,1051,SAN GREGORIO,,39.30025,9.364812,72,
B_10177,10177,SAN PAOLO,,39.29237,9.352537,72,
B_1142,1142,SINNAI PIAZZA SANT'ISIDORO,,39.30625,9.207138,71,
B_1919,1919,SINNAI VIA ROMA 27,,39.2999,9.199523,71,
B_1920,1920,SINNAI VIA FUNTANEDDAS 9,,39.30246,9.199751,71,
B_1921,1921,SINNAI VIA ROCCHEDDAS 71,,39.30516,9.202055,71,
B_1922,1922,SINNAI VIA ROCCHEDDAS 91-A,,39.30571,9.204516,71,
B_1924,1924,SINNAI VIA GIARDINI 33,,39.30311,9.209855,71,
B_1925,1925,SINNAI VIA COSTITUZIONE 12,,39.29976,9.207316,71,
B_1926,1926,SINNAI VIA DELLA LIBERTA' 47,,39.29885,9.207024,71,
B_1927,1927,SINNAI VIA DELLA LIBERTA' 125,,39.29642,9.209255,71,
B_1954,1954,SINNAI VIA DELLA LIBERTA' 58,,39.29647,9.209255,71,
B_1955,1955,SINNAI VIA DELLA LIBERTA' 28B,,39.29834,9.207567,71,
B_1956,1956,SINNAI VIA TRIESTE 61,,39.29945,9.201447,71,
B_1957,1957,SINNAI VIA ROMA 30,,39.29957,9.198444,71,
B_10251,10251,SINNAI VIA PINTOR 13,,39.3011,9.21131,71,
B_10252,10252,SINNAI VIA COSTITUZIONE 58,,39.298827,9.2113494,71,
B_1800,1800,DONIGALA,,39.598283,9.1862254,74,
B_1801,1801,SIURGUS,,39.595684,9.1830971,74,
B_17002,17002,SIURGUS VIA ROMA 9,,39.594045,9.182627,74,
B_17005,17005,DONIGALA VIA ROMA 228,,39.602180,9.1886819,74,
B_1850,1850,SOLEMINIS VIA FUNTANA'E SUSU 7,,39.34744,9.184555,76,
B_1007,1007,SUELLI,,39.56340,9.132932,77,
B_10941,10941,SUELLI SALESIANI,,39.56003,9.131074,77,
B_1161,1161,SP 71 BAIA DELLE GINESTRE,,38.92153,8.761662,0,
B_1158,1158,CAMPIONNA,,38.91769,8.767489,0,
B_1157,1157,CAPO MALFATANO,,38.90684,8.808779,0,
B_1117,1117,NURAX'E MESU,,38.94498,8.809923,78,
B_1115,1115,SA PORTEDDA CASERMA,,38.98472,8.700846,78,
B_11091,11091,SS 195 KM 71,,38.98911,8.678485,78,
B_10684,10684,SS 195 KM 62.800,,38.96078,8.759383,78,
B_1131,1131,TEULADA SPIAGGIA,,38.92603,8.717152,0,
B_11096,11096,TEULADA SPIAGGIA 2,,38.93044,8.718426,0,
B_11097,11097,TEULADA PORTO BUDELLO,,38.93695,8.725681,0,
B_1160,1160,TUERREDDA,,38.89634,8.815772,0,
B_8107,8107,SA PORTEDDA BAR,,38.98618,8.69495,78,
B_1116,1116,TEULADA,,38.96789,8.771861,78,
B_11086,11086,TEULADA VIA CAGLIARI,,38.96419,8.776155,78,
B_11088,11088,TEULADA VIA SULCIS FR 67,,38.96643,8.766937,78,
B_11089,11089,TEULADA VIA SULCIS FR. 103-SALESIANI,,38.96521,8.765106,78,
B_1645,1645,USSANA PIAZZA ALDO MORO,,39.39490,9.067449,81,
B_1647,1647,USSANA VIA ROMA - CANTINA SOCIALE,,39.38998,9.0821,81,
B_1967,1967,USSANA VIA ROMA 143,,39.39535,9.073237,81,
B_1968,1968,USSANA VIA DON MINZONI 26,,39.39657,9.076301,81,
B_1969,1969,USSANA VIALE 28 APRILE 1794,,39.39429,9.080235,81,
B_1970,1970,USSANA VIA PUDDU 50,,39.39188,9.08101,81,
B_2016,2016,USSANA VIA ROMA 34,,39.39148,9.080766,81,
B_2017,2017,USSANA VIA DON MINZONI 1,,39.39497,9.076206,81,
B_2018,2018,USSANA PIAZZA PERTINI,,39.39552,9.072262,81,
B_10417,10417,USSANA VIA ROMA 68 - PANIFICIO,,39.39175,9.079698,81,
B_10418,10418,USSANA VIA ROMA 81 - MONUMENTO,,39.39380,9.077157,81,
B_10420,10420,USSANA VIA ROMA 246,,39.39523,9.069498,81,
B_1314,1314,UTA STAZIONE FS,,39.30446,8.940383,90,
B_1113,1113,UTA VIA R. MARGHERITA 1,,39.28700,8.962165,82,
B_10290,10290,UTA VIA STAZIONE - DISTRIBUTORE,,39.29460,8.950262,82,
B_10291,10291,UTA PIAZZA MONUMENTO - EDICOLA,,39.29009,8.955426,82,
B_10292,10292,UTA MUNICIPIO,,39.28769,8.959984,82,
B_10293,10293,UTA VIA TORINO 33,,39.29485,8.950928,82,
B_10294,10294,UTA VIA R. MARGHERITA 81,,39.29075,8.958892,82,
B_10685,10685,SS 293,,39.34736,8.79845,83,
B_10687,10687,SS 293 AZIENDA AGRICOLA,,39.34023,8.79905,83,
B_10690,10690,SS 293 KM 22.000,,39.37166,8.803333,83,
B_10705,10705,VALLERMOSA VIA ROMA - RIFORNITORE,,39.369225,8.8021721,83,
B_1507,1507,VALLERMOSA VIA ROMA 38,,39.36275,8.797213,83,
B_10706,10706,VALLERMOSA VIA ROMA 57 - SCUOLE,,39.364102,8.7995167,83,
B_10397,10397,VILLA SAN PIETRO PICCAREDDU,,39.02935,9.000809,84,
B_1125,1125,VILLA SAN PIETRO,,39.03397,8.996014,84,
B_10355,10355,VILLA SAN PIETRO C.SO V.EMANUELE 75,,39.03234,8.999966,84,
B_10357,10357,VILLA SAN PIETRO V.LE CAGLIARI,,39.03556,8.999665,84,
B_18254,18254,VILLANOVATULO PIAZZA ALDO MORO,,39.782875,9.2123672,85,
B_18253,18253,VILLANOVATULO STAZIONE,,39.763453,9.2154014,85,
B_1897,1897,VILLANOVATULO,,39.77907,9.2149012,85,
B_1068,1068,PORTO CORALLO,,39.44318,9.636083,0,
B_10608,10608,PORTO CORALLO SP 99 KM 3.700,,39.43778,9.634084,0,
B_10609,10609,PORTO CORALLO PORTO,,39.44141,9.637835,0,
B_1055,1055,QUIRRA BAR TABACCHI,,39.51480,9.607353,50,
B_10457,10457,SS 125 RISTORANTE IL CASTELLO,,39.50141,9.610179,50,
B_10459,10459,SS 125 KM 88.800,,39.5461,9.594207,50,
B_1023,1023,VILLAPUTZU RIONE SANTA MARIA,,39.4343,9.592943,86,
B_10456,10456,SS 125 KM 71.800,,39.45215,9.599788,86,
B_10439,10439,VILLAPUTZU VIA NAZIONALE 4,,39.43868,9.570168,86,
B_10443,10443,VILLAPUTZU SCUOLE,,39.43535,9.583383,86,
B_10444,10444,VILLAPUTZU VIA NAZIONALE 149,,39.4372,9.580894,86,
B_10445,10445,VILLAPUTZU VIA NAZIONALE 77,,39.43913,9.576563,86,
B_1057,1057,VILLASALTO,,39.49272,9.393168,87,
B_10616,10616,VILLASALTO CORSO REPUBBLICA 58,,39.4936,9.390011,87,
B_10618,10618,VILLASALTO CAMPO SPORTIVO,,39.492,9.384956,87,
B_1614,1614,CAPO BOI,,39.13121,9.465011,88,
B_10543,10543,VILLASIMIUS PIZZERIA SANTA MARIA,,39.14367,9.494775,88,
B_10544,10544,VILLASIMIUS CORDOLINO BLU,,39.14483,9.50168,88,
B_10542,10542,VILLASIMIUS CAMPUS BAR ARIETE,,39.13885,9.486942,88,
B_10545,10545,VILLASIMIUS VIA ROMA 148,,39.14537,9.51196,88,
B_10556,10556,VILLASIMIUS VIA CAGLIARI INCROCIO VIA CAMBEDDA,,39.14628,9.512718,88,
B_10689,10689,SS 293 KM 19.000,,39.395,8.81655,89,
B_1012,1012,SU DANIELI,,39.34555,8.947963,89,
B_1011,1011,VILLASOR VIA FELICE SERRA FR 2,,39.38054,8.940413,89,
B_1437,1437,VILLASOR VIA CAGLIARI 48,,39.37662,8.942541,89,
B_10330,10330,VILLASOR STAZIONE FS,,39.38156,8.936325,89,
B_1111,1111,VILLASPECIOSA VIA CAGLIARI 6,,39.31236,8.927236,90,
B_10316,10316,VILLASPECIOSA VIA CAGLIARI 54,,39.31090,8.929221,90,
B_8012,8012,BUGGERRU VIA ROMA 44,,39.39,8.4005,95,
B_80550,80550,BUGGERRU VIA DIAZ BAR INFO TUR,,39.396,8.403467,95,
B_80551,80551,BUGGERRU VIA DIAZ RIFORNITORE Q8,,39.39973,8.40235,95,
B_80552,80552,BUGGERRU VIA ROMA 136 BAR AQUILA,,39.39621,8.401383,95,
B_80549,80549,BUGGERRU VIA DIAZ-MALFIDANO CAVALCAVIA,,39.39198,8.405267,95,
B_80665,80665,SP 83 SAN NICOLO',,39.416,8.411133,95,
B_80662,80662,SP 83 CASERMA FORESTALE,,39.43373,8.413617,95,
B_80663,80663,SP 83 CASERMETTE,,39.44266,8.43115,95,
B_80664,80664,SP 83 PILLONI CAMPING,,39.44156,8.42495,95,
B_80682,80682,SS 126 CANDIAZZUS,,39.39931,8.472467,121,
B_8014,8014,CALASETTA,,39.11153,8.372333,96,
B_8245,8245,CALASETTA VIA R. MARGHERITA,,39.11098,8.3695,96,
B_8246,8246,CALASETTA VIA DANTE 45,,39.108817,8.3719283,96,
B_80568,80568,CALASETTA CIMITERO,,39.10416,8.373167,96,
B_80679,80679,SS 126 6.750,,39.08483,8.405033,96,
B_80680,80680,SS 126 7.500,,39.085,8.396167,96,
B_8022,8022,CUSSORGIA,,39.10133,8.3997,96,
B_8005,8005,BACU ABIS,,39.24183,8.465167,92,
B_8320,8320,BACU ABIS VIA MONTEPONI,,39.24111,8.467675,0,
B_8006,8006,BARBUSI,,39.20066,8.50635,97,
B_80542,80542,BARBUSI VIA S.MARIA DELLE GRAZIE 9,,39.19766,8.505117,97,
B_80543,80543,BARBUSI VIA S.MARIA DELLE GRAZIE 117,,39.20636,8.5099,97,
B_8008,8008,BAREGA,,39.26120,8.549379,93,
B_8016,8016,CAPUT ACQUAS,,39.21323,8.505183,97,
B_8017,8017,CARBONIA VIA MANNO 6,,39.16633,8.525167,97,
B_8079,8079,SERBARIU VIA F.FILZI,,39.15777,8.539831,97,
B_8128,8128,CARBONIA VIA COSTITUENTE 44,,39.1694,8.517559,97,
B_8129,8129,CARBONIA PIAZZA IGLESIAS,,39.16041,8.52984,97,
B_8148,8148,CARBONIA VIA LOGUDORO 10,,39.17751,8.51685,97,
B_8150,8150,CARBONIA VIA DELLA VITTORIA-MAZZIN,,39.1583,8.524617,97,
B_8186,8186,CARBONIA VIA CAGLIARI 111,,39.17161,8.523287,97,
B_8190,8190,CARBONIA VIA SATTA 85,,39.17458,8.51775,97,
B_8191,8191,CARBONIA VIA LOGUDORO-CASE EURAL.,,39.1787,8.513033,97,
B_8192,8192,CARBONIA VIA DALMAZIA-SCUOLE,,39.17646,8.513035,97,
B_8193,8193,CARBONIA VIA GRAMSCI 311,,39.17083,8.520333,97,
B_8195,8195,CARBONIA VIALE TRENTO 2,,39.16348,8.523233,97,
B_8196,8196,CARBONIA VIA MAZZINI 64,,39.15861,8.525412,97,
B_8197,8197,CARBONIA VIA DELLA VITTORIA 57,,39.1605,8.52518,97,
B_8198,8198,CARBONIA VIA LUBIANA 169,,39.15488,8.520487,97,
B_8211,8211,CARBONIA CORSO IGLESIAS-PONTE,,39.16280,8.530025,97,
B_8213,8213,CARBONIA PIAZZA SAN PONZIANO,,39.15895,8.526678,97,
B_8214,8214,CARBONIA VIALE ARSIA-BIBLIOTECA,,39.16344,8.526425,97,
B_8100,8100,CARBONIA CENTRO INTERMODALE,,39.1634,8.51332,97,
B_8217,8217,CARBONIA VIA ASPRONI FR.182,,39.15832,8.522096,97,
B_8218,8218,CARBONIA VIA LUBIANA 343,,39.1521,8.512033,97,
B_8220,8220,CARBONIA VIA COSTITUENTE 43,,39.17033,8.518667,97,
B_8259,8259,CARBONIA VIA NAZIONALE 35,,39.16377,8.508428,97,
B_8470,8470,CARBONIA VIA TRIESTE 101,,39.168953,8.5189279,97,
B_8471,8471,CARBONIA VIA LUBIANA 25 - EDICOLA,,39.15725,8.537471,97,
B_8475,8475,CARBONIA VIA DALMAZIA-D'ANNUNZIO,,39.17405,8.515112,97,
B_8534,8534,CARBONIA VIA DELLE CERNITRICI,,39.165571,8.515976,97,
B_8536,8536,CARBONIA VIA DEL MINATORE-STADIO,,39.16798,8.51272,97,
B_8540,8540,CARBONIA VIA CASTELSARDO,,39.17445,8.512269,97,
B_80242,80242,CARBONIA VIA G.M. ANGIOY 51,,39.15568,8.529087,97,
B_80479,80479,CARBONIA VIA NAZIONALE 19,,39.15224,8.510799,97,
B_85187,85187,CARBONIA VIA TIRSO 58,,39.17444,8.525996,0,
B_85188,85188,CARBONIA VIA SICILIA 21,,39.17630,8.525154,0,
B_85189,85189,CARBONIA PIAZZA I MAGGIO,,39.17904,8.522816,0,
B_85199,85199,CARBONIA CIMITERO,,39.154666,8.5355522,0,
B_85206,85206,CARBONIA MEDADEDDU,,39.15046,8.533813,0,
B_85208,85208,CARBONIA VIA BELLINI FR. 36,,39.15685,8.532235,0,
B_85212,85212,CARBONIA CORSO IGLESIAS 36,,39.1653,8.530487,0,
B_85219,85219,CARBONIA PIAZZA MATTEOTTI,,39.1663,8.526632,0,
B_85261,85261,CARBONIA PIAZZA RINASCITA 6,,39.16784,8.526018,0,
B_85457,85457,CARBONIA VIA LUBIANA FR. ASVOC,,39.1536,8.514688,97,
B_85477,85477,CARBONIA VIA ROMA-ENEL,,39.16428,8.52142,0,
B_85478,85478,CARBONIA VIA ROMA-EURALCOOP,,39.16372,8.517273,0,
B_85485,85485,CARBONIA VIA COSTITUENTE - SCUOLE,,39.16720,8.514799,97,
B_85494,85494,CARBONIA VIA LUBIANA 251,,39.15407,8.516019,97,
B_85496,85496,CARBONIA VIA S.GIUSEPPE FR. 9,,39.15921,8.536993,0,
B_85498,85498,CARBONIA VIA S.CATERINA-SUPERPAN,,39.15985,8.533102,0,
B_85542,85542,SU REI VIA SOLKI 33,,39.14987,8.512928,0,
B_85544,85544,CARBONIA VIA XVIII DICEMBRE-PRETURA,,39.16757,8.528631,0,
B_85545,85545,CARBONIA VIA NUORO 58,,39.16994,8.52701,0,
B_85546,85546,CARBONIA CORSO IGLESIAS FR.9,,39.16098,8.530022,0,
B_85547,85547,CARBONIA VIA SATTA 226,,39.17791,8.519559,97,
B_85548,85548,CARBONIA PIAZZA MATTEOTTI-AGIP,,39.16717,8.525883,0,
B_85549,85549,CARBONIA VIA TIRSO 75,,39.17324,8.525331,0,
B_85576,85576,CARBONIA VIA D'ANNUNZIO 20,,39.17460,8.517231,0,
B_85577,85577,CARBONIA VIA COSTITUENTE - EX INAIL,,39.16523,8.513701,97,
B_85578,85578,CARBONIA VIA DANTE-CHIOSCO,,39.15961,8.531626,0,
B_85579,85579,SERBARIU PONTE,,39.15608,8.540812,0,
B_80567,80567,BACU ABIS VIA POZZO NUOVO FR 53,,39.23633,8.464667,92,
B_80705,80705,BARBUSI SU STRINTU DE S`AXINA,,39.20946,8.513733,97,
B_8436,8436,BARBUSI TANAS SP2,,39.19296,8.504317,97,
B_80544,80544,BAREGA FERMATA OLLA,,39.24988,8.565933,93,
B_80545,80545,BAREGA AVE MARIA,,39.25548,8.565216,93,
B_80546,80546,BAREGA CASA GIALLA,,39.25890,8.560452,93,
B_80652,80652,SP 75 TRA BIVIO BRUNCU TEULA E SP2,,39.16813,8.454967,117,
B_8083,8083,CARBONIA OSPEDALE SIRAI,,39.18480,8.507612,97,
B_8122,8122,CARBONIA BIVIO OSPEDALE SIRAI,,39.18,8.50635,97,
B_80576,80576,CORTOGHIANA VIA A.DI SAVOIA 112,,39.21266,8.469667,100,
B_80685,80685,SS 126 KM 20 MEDAU DESOGUS,,39.19883,8.4764,102,
B_8028,8028,GENNE CORRIGA,,39.2133,8.525967,97,
B_8078,8078,SEDDARGIA,,39.221,8.537433,97,
B_80233,80233,SP 2 IS PIREDDAS,,39.2267,8.54305,97,
B_8037,8037,IS GANNAUS,,39.142837,8.5054975,107,
B_8039,8039,IS PERDAS,,39.20883,8.499233,97,
B_80654,80654,SP 78 GARAMATTA,,39.17033,8.580533,97,
B_80655,80655,SP 78 MEDAU SU CONTI,,39.1607,8.568267,97,
B_80435,80435,SIRAI  RISTORANTE TANIT,,39.1873,8.490283,97,
B_8021,8021,CORTOGHIANA,,39.21283,8.461667,100,
B_80575,80575,CORTOGHIANA VIA A.DI SAVOIA 74,,39.21283,8.465,100,
B_80577,80577,CORTOGHIANA VIA RINALDO LOI,,39.21,8.4585,100,
B_8098,8098,FLUMENTEPIDO,,39.1888,8.482917,102,
B_80581,80581,FLUMENTEPIDO ACENTRO,,39.19373,8.47765,102,
B_80487,80487,SIRAI CENTRO REVISIONI,,39.18636,8.499333,97,
B_8018,8018,CARLOFORTE VIA V.EMANUELE 27,,39.145327,8.3077848,900,
B_8306,8306,CARLOFORTE PIAZZA PEGLI,,39.14229,8.305246,900,
B_8307,8307,MACCHIONE,,39.1308,8.299661,900,
B_8314,8314,CALAFICO,,39.15370,8.229201,900,
B_8315,8315,CAPO SANDALO,,39.144311,8.2251148,900,
B_8297,8297,CARLOFORTE CIMITERO,,39.128074,8.3053044,900,
B_8298,8298,GIUNCO,,39.125593,8.3048198,900,
B_8299,8299,GIRIN,,39.116208,8.3071098,900,
B_8300,8300,PUNTA NERA,,39.107531,8.3040951,900,
B_8301,8301,LA BOBBA,,39.09726,8.289431,900,
B_8302,8302,LE COLONNE,,39.10185,8.279679,900,
B_8304,8304,SPALMATORE,,39.11332,8.263269,900,
B_8305,8305,LA CALETTA,,39.117959,8.2577345,150,
B_8309,8309,MANDRA,,39.140746,8.2848031,900,
B_8310,8310,PARADISO,,39.14516,8.280505,900,
B_8311,8311,COMMENDE,,39.1447,8.272877,900,
B_8312,8312,TANCHE,,39.14602,8.251151,900,
B_8313,8313,GENARBI,,39.150403,8.2403009,900,
B_8316,8316,CANALFONDO,,39.154800,8.3052616,900,
B_8317,8317,TACCAROSSA BIVIO,,39.1597,8.304972,900,
B_8318,8318,CALALUNGA,,39.16623,8.299474,900,
B_8319,8319,LA PUNTA,,39.18550,8.306276,900,
B_80578,80578,DOMUSNOVAS OPIFICIO,,39.31746,8.636,101,
B_80584,80584,DOMUSNOVAS VIA NURAGHE,,39.32381,8.643367,101,
B_8024,8024,DOMUSNOVAS PIAZZA MATTEOTTI,,39.32091,8.648167,101,
B_8144,8144,DOMUSNOVAS CRACCHERA,,39.329,8.645833,101,
B_8230,8230,DOMUSNOVAS VIA DI VITTORIO,,39.325807,8.647945,101,
B_8231,8231,DOMUSNOVAS PIAZZA LECCIS,,39.320,8.650533,101,
B_8533,8533,DOMUSNOVAS VIA MAGENTA 15,,39.32321,8.651637,101,
B_80232,80232,DOMUSNOVAS VIA MUSEI 189,,39.31566,8.655238,101,
B_80579,80579,DOMUSNOVAS VIA CAGLIARI-CARABINIERI,,39.32183,8.654333,101,
B_80681,80681,SS 126 BIVIO ANTAS,,39.388,8.480583,121,
B_80683,80683,SS 126 GENNA BOGAI,,39.37373,8.497217,121,
B_1516,1516,FLUMINIMAGGIORE,,39.43569,8.499123,103,
B_8353,8353,FLUMINIMAGGIORE CAMPO SPORTIVO,,39.44077,8.496562,103,
B_21066,21066,FLUMINIMAGGIORE VIA V.EMANUELE 458,,39.43953,8.493424,103,
B_80582,80582,FLUMINIMAGGIORE VIA V.EMANUELE 301,,39.43821,8.495717,103,
B_80583,80583,FLUMINIMAGGIORE VIA V.EMANUELE 4,,39.43281,8.500967,103,
B_80585,80585,FLUMINIMAGGIORE VIA V.EMANUELE 538,,39.44221,8.490133,103,
B_8062,8062,PORTIXEDDU,,39.4417,8.411617,95,
B_8072,8072,SANT'ANGELO,,39.37903,8.49355,121,
B_8036,8036,SP 73 IS CANNIGONIS,,39.03511,8.59435,109,
B_8029,8029,GIBA,,39.07116,8.633967,104,
B_80591,80591,GIBA VIA ROMA 29,,39.07056,8.634917,104,
B_80592,80592,GIBA VIA PRINCIPE DI PIEMONTE 169,,39.072,8.64115,104,
B_80593,80593,GIBA VIA PRINCIPE DI PIEMONTE 219,,39.0728,8.645183,104,
B_8095,8095,VILLARIOS,,39.05191,8.59525,131,
B_80721,80721,VILLARIOS VIA PORTOPINO,,39.051,8.59245,131,
B_80686,80686,SS 126 KM 22.900 BIVIO CIMITERO,,39.22483,8.466,115,
B_8027,8027,FUNTANAMARE,,39.28796,8.440017,105,
B_80659,80659,SP 83 KM 0.200,,39.27866,8.465833,105,
B_80660,80660,SP 83 KM 1.400,,39.28201,8.455653,105,
B_80595,80595,GONNESA CORSO MATTEOTTI 281,,39.26133,8.465833,105,
B_8060,8060,PLAGE MESU,,39.274388,8.4307139,0,
B_80657,80657,SP 81 BIVIO SERUCI,,39.23733,8.429167,115,
B_8088,8088,TERRE COLLU,,39.250,8.458333,105,
B_8030,8030,GONNESA,,39.26366,8.470333,105,
B_80590,80590,GONNESA VIA IGLESIAS 12,,39.27083,8.468833,105,
B_80596,80596,GONNESA VIA IGLESIAS 44,,39.268,8.470667,105,
B_8053,8053,NURAXI FIGUS,,39.22116,8.434,115,
B_80619,80619,NURAXI FIGUS VIA ROMA 12,,39.22,8.432167,115,
B_8010,8010,BINDUA,,39.29335,8.492163,94,
B_8453,8453,BINDUA SCUOLE,,39.29333,8.4911,94,
B_8066,8066,SS 126 OSPEDALE CROBU-FORESTAS,,39.3275,8.53179,106,
B_8033,8033,GUARDIA GIBARA,,39.25461,8.592583,99,
B_80668,80668,SP 85 KM 4.200,,39.264,8.587933,99,
B_8125,8125,IGLESIAS SERRA PERDOSA PANIFICIO,,39.30488,8.546477,106,
B_8167,8167,VILLA MARINI,,39.2990,8.512567,106,
B_8174,8174,SS 130 PIZZERIA ARDAU,,39.30470,8.558191,106,
B_8535,8535,IGLESIAS VIA BAREGA,,39.29896,8.556552,106,
B_80689,80689,SS 130 KM 49.900 CERAMICA,,39.302,8.581,106,
B_8140,8140,IGLESIAS CANTINA SOCIALE,,39.29773,8.5707,106,
B_8123,8123,MASUA IMPIANTI,,39.33145,8.430408,110,
B_8136,8136,SA FRAGATA,,39.29656,8.565267,106,
B_8179,8179,STRADA CORONGIU CASADA,,39.28793,8.569267,106,
B_80667,80667,SP 85 KM 2.000,,39.28319,8.572457,106,
B_80669,80669,SP 85 NURA PONTI,,39.2789,8.576683,106,
B_80670,80670,SP 85 VIA ULIVI,,39.28566,8.570783,106,
B_8084,8084,TANI`,,39.22691,8.559133,99,
B_80706,80706,TANI` 2,,39.22845,8.556552,97,
B_85552,85552,IGLESIAS HOTEL LE TOUR,,39.31081,8.558899,0,
B_85553,85553,IGLESIAS SPORT VILLAGE,,39.30640,8.562742,0,
B_85554,85554,IGLESIAS ROSA DEL MARGANAI,,39.31145,8.557145,0,
B_85555,85555,IGLESIAS ROTONDA VV. FF.,,39.29978,8.565322,0,
B_85558,85558,IPPODROMO ASARO,,39.28268,8.560386,0,
B_85559,85559,IGLESIAS CINEWORLD,,39.30570,8.565639,0,
B_85560,85560,IGLESIAS LA COLLINETTA,,39.30867,8.560912,0,
B_85564,85564,IGLESIAS BIVIO CASA SERENA,,39.3020,8.554345,0,
B_8020,8020,CORONGIU,,39.23676,8.560917,99,
B_8049,8049,MONTEPONI PIAZZALE MINIERA,,39.30141,8.5127,106,
B_8091,8091,IGLESIAS PIAZZA SELLA PLAISANT,,39.3129,8.536204,106,
B_8117,8117,IGLESIAS VIA MADDALENA,,39.31224,8.545475,106,
B_8124,8124,IGLESIAS STAZIONE FS,,39.310,8.540017,106,
B_8138,8138,IGLESIAS PIAZZA CAVALLERA IPSIA,,39.308153,8.5411622,106,
B_8153,8153,IGLESIAS VIA GENOVA-VENEZIA,,39.307,8.539167,0,
B_8154,8154,IGLESIAS PIAZZA MERCATO,,39.31131,8.534867,106,
B_8157,8157,IGLESIAS PIAZZA OBERDAN,,39.31243,8.536417,106,
B_8159,8159,IGLESIAS VIA CAPPUCCINI CONSORZIO,,39.30755,8.547818,106,
B_8160,8160,IGLESIAS VIA CAPPUCCINI CIMITERO,,39.31011,8.544517,106,
B_8161,8161,IGLESIAS VIA DELLA REGIONE EX SIP,,39.31288,8.54365,106,
B_8162,8162,IGLESIAS PIAZZA SELLA VILLA TORNU`,,39.31291,8.537,106,
B_8163,8163,IGLESIAS VIA ROMA OVIESSE,,39.31151,8.533417,106,
B_8000,8000,IGLESIAS C.T.O.,,39.31083,8.524967,106,
B_8166,8166,IGLESIAS VIA VIVALDI CONSORZIO,,39.30666,8.5205,106,
B_8168,8168,IGLESIAS PIAZZA CAVALLERA CROCIFISSO,,39.30866,8.54073,106,
B_8170,8170,IGLESIAS VIALE COLOMBO 30 CABINA ENEL,,39.30616,8.5449,106,
B_8171,8171,IGLESIAS VIALE COLOMBO SERRAU,,39.30386,8.549785,106,
B_8172,8172,IGLESIAS VIALE COLOMBO CASA SERENA,,39.30206,8.556533,106,
B_8177,8177,IGLESIAS VIA ROMA EX SIP,,39.312,8.53085,106,
B_8178,8178,IGLESIAS CUORE IMMACOLATO,,39.31016,8.534167,106,
B_8327,8327,IGLESIAS VIA CACCIARRU SCUOLE,,39.30771,8.534354,106,
B_8329,8329,IGLESIAS VIA S.SALVATORE 79,,39.307,8.5473,106,
B_8332,8332,IGLESIAS VIA LACONI,,39.305219,8.5352546,0,
B_8333,8333,IGLESIAS VIA SIRACUSA,,39.305356,8.5379561,0,
B_8354,8354,IGLESIAS PIAZZA GIOVANNI XXIII,,39.30207,8.547893,106,
B_8434,8434,IGLESIAS CASA DEL MOBILE,,39.30212,8.551477,106,
B_8474,8474,IGLESIAS CAVALCAFERROVIA,,39.30475,8.549568,106,
B_8570,8570,IGLESIAS VIA CATTANEO CONAD,,39.30883,8.523,106,
B_8571,8571,IGLESIAS VIALE COLOMBO ENOTECA,,39.30496,8.546874,106,
B_8575,8575,IGLESIAS VIA CATTANEO 15,,39.31243,8.528533,106,
B_80329,80329,IGLESIAS VIA S.SALVATORE 44,,39.30856,8.54485,106,
B_80360,80360,IGLESIAS VIA S.ANTONIO-MADONNINA,,39.3193,8.532833,106,
B_80601,80601,IGLESIAS PIAZZA FENZA,,39.315325,8.5342134,106,
B_85034,85034,IGLESIAS VAI VITT.VENETO 107,,39.30776,8.537583,106,
B_85175,85175,IGLESIAS VIA SETTE FRATELLI 22,,39.31446,8.543103,0,
B_85176,85176,IGLESIAS OSPEDALE S.BARBARA,,39.31478,8.539117,0,
B_85328,85328,IGLESIAS CAMPI TENNIS ORUNESU,,39.31167,8.547223,106,
B_85341,85341,IGLESIAS CASERMA CARABINIERI,,39.30889,8.532738,0,
B_85452,85452,IGLESIAS PRETURA,,39.303596,8.5465038,0,
B_85507,85507,IGLESIAS VIALE FRA IGNAZIO 29,,39.31203,8.541933,106,
B_85508,85508,IGLESIAS VIA V.MARIA 19,,39.30621,8.521167,106,
B_85509,85509,IGLESIAS VIA V.MARIA 14,,39.30428,8.520183,106,
B_85510,85510,IGLESIAS VIA V.MARIA 30,,39.30301,8.5195,106,
B_85511,85511,IGLESIAS VIA V.MARIA 74,,39.30203,8.517767,106,
B_85556,85556,IGLESIAS VIALE FADDA LIDL,,39.30599,8.536596,0,
B_85562,85562,IGLESIAS VIA ISONZO MINERARIO,,39.31097,8.531959,0,
B_85563,85563,IGLESIAS VIA MONS.PIRASTRU,,39.30485,8.535341,0,
B_85565,85565,IGLESIAS VIA ARGENTARIA SISA,,39.306,8.540399,0,
B_85572,85572,IGLESIAS VIALE COLOMBO 110,,39.30106,8.559808,0,
B_85573,85573,IGLESIAS VIA MARCHESE,,39.31204,8.544981,0,
B_85574,85574,IGLESIAS  VIA DELLA REGIONE 2,,39.31390,8.539123,0,
B_8045,8045,MASUA,,39.331,8.434,110,
B_8047,8047,MONTE AGRUXIAU,,39.29966,8.489133,94,
B_8173,8173,IGLESIAS V.LE VILLA DI CHIESA NONNA ISA,,39.3034,8.564467,106,
B_8361,8361,IGLESIAS MONTE FIGUS,,39.30208,8.57115,106,
B_8052,8052,NEBIDA,,39.31451,8.436633,114,
B_80616,80616,NEBIDA MACELLERIA,,39.31613,8.437683,114,
B_80617,80617,NEBIDA C.SO PAN DI ZUCCHERO 392,,39.3195,8.436267,114,
B_80618,80618,NEBIDA SCUOLE ELEMENTARI,,39.31158,8.43745,114,
B_85183,85183,SAN BENEDETTO,,39.362,8.52765,124,
B_86637,86637,SAN BENEDETTO INGRESSO,,39.359,8.527267,124,
B_86638,86638,SAN BENEDETTO VIA LINASIA 24,,39.36091,8.52795,124,
B_8143,8143,IGLESIAS Z.I. FRONTEDDU,,39.29414,8.579699,106,
B_85200,85200,IGLESIAS Z.I. CONSORZIO,,39.29110,8.578846,0,
B_85569,85569,IGLESIAS Z.I. PATTA,,39.29392,8.573739,0,
B_86558,86558,IGLESIAS Z. I. COMI,,39.29236,8.580617,106,
B_8041,8041,IS SOLINAS,,39.02686,8.596667,109,
B_8270,8270,IS FIASCUS,,39.04076,8.632,109,
B_80610,80610,IS LAIS SS 195 KM 78.900,,39.0318,8.634367,109,
B_8044,8044,MASAINAS,,39.05141,8.629217,109,
B_80611,80611,MASAINAS VIA ROMA 141,,39.0482,8.630233,109,
B_80674,80674,SP 87 KM 1.000,,39.29711,8.657217,112,
B_8050,8050,MUSEI,,39.30143,8.666783,112,
B_80612,80612,MUSEI VIA SARDEGNA 45,,39.30416,8.66565,112,
B_8035,8035,IS AIOS,,39.17598,8.730217,113,
B_8051,8051,NARCAO,,39.166,8.676267,113,
B_80613,80613,NARCAO STRADA PER TERRASEO,,39.17148,8.6714,113,
B_80614,80614,NARCAO VIA VILLAPERUCCIO 7,,39.16671,8.677367,113,
B_8262,8262,IS CHERCHIS,,39.16296,8.655933,113,
B_8038,8038,IS MEDDAS,,39.15151,8.683917,113,
B_80522,80522,NARCAO VIA CARBONIA 28,,39.16708,8.673117,113,
B_80523,80523,NARCAO VIA CAGLIARI 70,,39.17068,8.6823,113,
B_8067,8067,RIO MURTAS,,39.17973,8.709217,113,
B_80517,80517,RIO MURTAS BIVIO IS CORDAS,,39.182,8.7165,113,
B_80518,80518,RIO MURTAS VIA NAZIONALE-SATTA,,39.17887,8.700217,113,
B_80519,80519,RIO MURTAS VIA NAZIONALE 109,,39.18026,8.710935,113,
B_8085,8085,NARCAO TERRASEO,,39.20311,8.626417,127,
B_8087,8087,NARCAO TERRUBIA,,39.18698,8.720717,113,
B_8001,8001,ACQUACADDA,,39.1734,8.750667,116,
B_80539,80539,ACQUACADDA SCUOLE,,39.17418,8.750167,116,
B_80699,80699,SS 293 KM 52.100,,39.16323,8.7437,116,
B_8009,8009,BAU PRESSIU,,39.18,8.759533,116,
B_8002,8002,ACQUACALLENTI,,39.14503,8.727,116,
B_80701,80701,SS 293 KM 54.300,,39.14723,8.729367,116,
B_80702,80702,SS 293 KM 55.500,,39.1370,8.718817,116,
B_80693,80693,SS 293 CRABI',,39.16674,8.745788,116,
B_8054,8054,NUXIS,,39.155,8.739983,116,
B_80700,80700,SS 293 RIF. Q8,,39.158151,8.7408081,116,
B_80266,80266,SP 78 TANA MARGIANIS,,39.16006,8.632517,118,
B_8077,8077,SAN LEONARDO PERDAXIUS,,39.1556,8.615517,118,
B_80636,80636,SAN LEONARDO VIA GARIBALDI,,39.14946,8.6174,118,
B_8057,8057,PERDAXIUS,,39.16107,8.610606,118,
B_80623,80623,PERDAXIUS VIA REPUBBLICA 19,,39.163,8.607117,118,
B_8058,8058,PESUS,,39.16123,8.64165,118,
B_8059,8059,PISCINAS,,39.077,8.6651,119,
B_80658,80658,SP 82 KM 3.5 GHILLOTTA,,39.23183,8.413167,120,
B_8056,8056,PARINGIANU,,39.174,8.428483,117,
B_80621,80621,PARINGIANU VIA SULCIS 13 BAR BIGLIETTERIA,,39.1752,8.427167,117,
B_8102,8102,PORTOVESME PORTO,,39.19916,8.390183,120,
B_8223,8223,EURALLUMINA,,39.2100,8.396783,120,
B_8224,8224,PORTOVESME S.R.L.,,39.211452,8.4099332,120,
B_8225,8225,EX ALCOA TRANSITO,,39.20182,8.412373,120,
B_8352,8352,PORTOVESME IST.VENEZIANO,,39.20718,8.393017,120,
B_8063,8063,PORTOPAGLIETTO,,39.21083,8.373833,0,
B_8064,8064,PORTOSCUSO VIA PALERMO,,39.20503,8.381667,120,
B_8130,8130,PORTOSCUSO PIANO DI ZONA,,39.2131,8.3775,120,
B_80252,80252,PORTOSCUSO VIA GIULIO CESARE,,39.20318,8.385167,120,
B_80624,80624,PORTOSCUSO VIA GRAZIA DELEDDA EDICOLA,,39.20766,8.379167,120,
B_80625,80625,PORTOSCUSO VIA I MAGGIO 47,,39.20,8.39,120,
B_8226,8226,I.L.A.,,39.19133,8.411407,120,
B_80648,80648,SP 73 TRA VIA PORTOPINO 7 E IS CINUS,,38.99828,8.640333,122,
B_80649,80649,SP 73 IS CINUS,,38.98951,8.629667,122,
B_8040,8040,IS PILLONIS,,38.9794,8.617283,122,
B_80644,80644,SP 110 SCUOLA ALBERGHIERA,,38.97521,8.6119,122,
B_8065,8065,PORTOPINO,,38.96396,8.595967,122,
B_80645,80645,SP 110 SU CORRU MANCIU  BAR PIZZERIA,,38.96803,8.600383,122,
B_1114,1114,SANT'ANNA ARRESI MUNICIPIO,,39.00445,8.64318,122,
B_8073,8073,SANT'ANNA ARRESI VIA ITALIA,,39.00466,8.64105,122,
B_8268,8268,SANT'ANNA ARRESI BIVIO PORTO PINO,,39.00276,8.644655,122,
B_8269,8269,IS DOMUS,,39.014829,8.6392581,122,
B_80626,80626,SANT'ANNA ARRESI VIA ITALIA 193,,39.00091,8.648133,122,
B_80627,80627,SANT'ANNA ARRESI VIA ITALIA 167,,39.00383,8.642667,122,
B_80628,80628,SANT'ANNA ARRESI VIA ITALIA 52,,39.010,8.63845,122,
B_80629,80629,SANT'ANNA ARRESI VIA PORTOPINO 7,,39.001,8.644883,122,
B_8043,8043,MALADROXIA,,38.9976,8.4471,0,
B_8334,8334,S.ANTIOCO COA QUADDU,,38.9820,8.44245,0,
B_8338,8338,SP 76 FUNTANA CANNAI,,39.0001,8.42495,0,
B_80678,80678,SS 126 4.700,,39.07,8.426167,123,
B_80684,80684,SS 126 KM 0.300 PONTI,,39.05816,8.469833,123,
B_80254,80254,SANT'ANTIOCO VIA NAZIONALE 203-C,,39.05833,8.462333,123,
B_8253,8253,SANT'ANTIOCO VIA MATTEOTTI,,39.06066,8.447667,123,
B_8275,8275,SANT'ANTIOCO PIAZZA REPUBBLICA 5,,39.06416,8.45585,123,
B_8277,8277,SANT'ANTIOCO VIA TRENTO 48,,39.05866,8.4545,123,
B_8330,8330,SANT'ANTIOCO VIA CALASETTA 66,,39.070,8.44865,123,
B_8357,8357,SANT'ANTIOCO LUNGOMARE COLOMBO,,39.06756,8.45875,123,
B_8359,8359,SANT'ANTIOCO VIA TUVERI 7,,39.06758,8.447,123,
B_8461,8461,SANT'ANTIOCO VIA BOLZANO SCUOLE,,39.07211,8.44815,123,
B_80631,80631,SANT'ANTIOCO CABINA ENEL,,39.0647,8.446983,123,
B_80632,80632,SANT'ANTIOCO VIA NAZIONALE 147,,39.061,8.45875,123,
B_80633,80633,SANT'ANTIOCO VIA TUVERI 1,,39.070,8.446683,123,
B_8011,8011,BRUNCU TEULA,,39.15903,8.4371,117,
B_80548,80548,BRUNCU TEULA 2,,39.16123,8.44015,117,
B_80264,80264,FUNTANONA IS PEIS,,39.12166,8.515217,125,
B_8248,8248,IS PITZUS,,39.12318,8.473383,111,
B_80386,80386,SP 75 INCROCIO PUNTA TRETTU,,39.12943,8.463367,111,
B_80650,80650,SP 75 IS BINGIAS,,39.14296,8.45835,111,
B_8247,8247,IS COLLUS,,39.10193,8.495,125,
B_80256,80256,SS 126 SANTA CATERINA,,39.09,8.493467,125,
B_8296,8296,FUNTANONA IS PUSCEDDUS,,39.130,8.5094,125,
B_8042,8042,IS URIGUS CHIESA,,39.13340,8.493824,125,
B_8046,8046,MATZACCARA,,39.13236,8.4547,111,
B_80388,80388,MATZACCARA VIA REPUBBLICA SCUOLE,,39.13381,8.455467,111,
B_80389,80389,MATZACCARA VIA FOSSE ARDEATINE,,39.1347,8.45375,111,
B_80425,80425,MATZACCARA VIA FOSSE ARDEATINE 1,,39.13183,8.452233,111,
B_8127,8127,S. GIOVANNI SUERGIU STAZIONE,,39.10606,8.526233,125,
B_80147,80147,S. GIOVANNI SUERGIU LA MADONNINA,,39.11,8.521167,125,
B_80458,80458,S. GIOVANNI SUERGIU VIA PORTO BOTTE 89,,39.10436,8.52945,125,
B_80635,80635,S. GIOVANNI SUERGIU VIA V.EMANUELE 154,,39.10531,8.514791,125,
B_8055,8055,PALMAS,,39.086,8.545867,125,
B_8149,8149,SANTADI STAZIONE ARST,,39.10163,8.701333,126,
B_8525,8525,BARRANCU MANNU,,39.092,8.7576,126,
B_8529,8529,SP 79 CASEIFICIO,,39.10683,8.6906,126,
B_80703,80703,SS 293 KM 59.150,,39.1145,8.694667,130,
B_80704,80704,SS 293 RIF. TAMOIL,,39.10621,8.688367,126,
B_8070,8070,SANTADI,,39.09276,8.7167,126,
B_8331,8331,SANTADI BASSO,,39.085321,8.713152,126,
B_80351,80351,SANTADI VIA CAGLIARI 38,,39.09761,8.709583,126,
B_8097,8097,SANTADI CIRC. E. LUSSU,,39.09426,8.71455,126,
B_8086,8086,TERRESOLI,,39.09041,8.743433,126,
B_80708,80708,TERRESOLI VIA NAZIONALE 14 SP1,,39.09046,8.741017,126,
B_8090,8090,TRATALIAS MUNICIPIO,,39.10,8.577667,128,
B_80710,80710,TRATALIAS PIAZZA GRAMSCI,,39.10546,8.576367,128,
B_80711,80711,TRATALIAS VIA 6 OTTOBRE 9,,39.10198,8.580933,128,
B_80712,80712,TRATALIAS VIALE RINASCITA,,39.10316,8.575367,128,
B_8113,8113,TRATALIAS VIA NUOVA,,39.09691,8.5684,128,
B_8142,8142,MONTE CADELANO,,39.26738,8.722183,129,
B_80647,80647,SP 2 MONTE GIOIOSU,,39.27256,8.6833,129,
B_80673,80673,SP 86 OLAND FLOR,,39.28461,8.618267,129,
B_8141,8141,VILLAMASSARGIA STAZIONE FS,,39.29518,8.642383,129,
B_8094,8094,VILLAMASSARGIA VIA DELLO SPORT 11,,39.27266,8.643483,129,
B_8530,8530,VILLAMASSARGIA VIA PILL'E MATTA,,39.27401,8.636842,129,
B_80717,80717,VILLAMASSARGIA P.ZZA F.LLI CERVI,,39.277296,8.6429591,129,
B_80719,80719,VILLAPERUCCIO VIA NAZIONALE 96,,39.11136,8.679533,130,
B_8096,8096,VILLAPERUCCIO,,39.11268,8.671267,130,
B_80718,80718,VILLAPERUCCIO VIA NAZIONALE 42,,39.11211,8.6756,130,
B_80720,80720,VILLAPERUCCIO VIA SULCIS 8,,39.11563,8.66625,130,
B_5012,5012,ARITZO CORSO UMBERTO FRONTE 109,,39.95583,9.19671,132,
B_51339,51339,ARITZO CORSO UMBERTO 2,,39.95933,9.1972,132,
B_51341,51341,ARITZO VIALE KENNEDY-PRESSI PARK HOTEL,,39.95092,9.19124,132,
B_5013,5013,CANT. COSSATZU,,39.94292,9.181245,132,
B_5015,5015,CANT. ORTUABIS,,39.90246,9.121933,132,
B_5014,5014,VALICO SA CASA,,39.9265,9.140466,132,
B_5031,5031,ATZARA VIA VITTORIO EMANUELE FR. CV 27,,39.99172,9.076514,133,
B_51334,51334,ATZARA BIVIO SAMUGHEO,,39.99297,9.076562,133,
B_51336,51336,ATZARA VIA VITTORIO EMANUELE 1,,39.98951,9.074942,133,
B_51333,51333,ATZARA SP 61,,39.99178,9.072027,133,
B_5032,5032,AUSTIS VIA VITTORIO EMANUELE 13 - COMUNE,,40.07101,9.08935,134,
B_50529,50529,AUSTIS SP 31 - INGRESSO DA SORGONO - BAR PIZZERIA,,40.066750,9.0848529,134,
B_51378,51378,AUSTIS VIA MAZZINI 3 - SCUOLE,,40.07028,9.087039,134,
B_5011,5011,BELVI' PIAZZA REPUBBLICA,,39.96125,9.184607,135,
B_5365,5365,BELVI' VIA ROMA 101,,39.95864,9.183219,135,
B_50785,50785,BELVI' FRONTE CIMITERO,,39.963951,9.1842747,135,
B_51338,51338,BELVI' VIA MAXIA - INGRESSO ABITATO,,39.95778,9.180053,135,
B_5401,5401,BIRORI VIA S.ANDREA 14,,40.265752,8.8149326,136,
B_50884,50884,BIRORI VIA GIOVANNI XXIII 16,,40.264829,8.8180047,136,
B_5402,5402,BIRORI STAZIONE,,40.269396,8.8174749,136,
B_53339,53339,BIRORI STAB. ROSADA,,40.271671,8.8038839,136,
B_5071,5071,BITTI,,40.47529,9.382585,137,
B_51876,51876,BITTI VIA BRIGATA SASSARI 241,,40.47883,9.385306,137,
B_51877,51877,BITTI VIA BRESCIA,,40.48021,9.381692,137,
B_51879,51879,BITTI CORSO VITT.VENETO 227,,40.47939,9.38072,137,
B_51881,51881,BITTI CASERMA CARABINIERI,,40.47725,9.388311,137,
B_51875,51875,SP 3 SA PENETESSA,,40.48424,9.408369,137,
B_51878,51878,BITTI AGRITURISMO DOGOLAI,,40.44981,9.369219,137,
B_5078,5078,BITTI Z.I. SAN GIOVANNI,,40.49051,9.357278,137,
B_5405,5405,BOLOTANA BASTIONE S.PIETRO,,40.326849,8.9583059,138,
B_5406,5406,BOLOTANA VIA STAZIONE-CARABINIERI,,40.320499,8.9625942,138,
B_50922,50922,BOLOTANA CASE GESCAL,,40.315130,8.9638447,138,
B_5404,5404,BOLOTANA STAZIONE,,40.311184,8.9632466,138,
B_50923,50923,BOLOTANA Z.I. CASE SPARSE,,40.307923,8.9654961,138,
B_4210,4210,BORORE,,40.21532,8.8032,139,
B_51048,51048,BORORE VIA ROMA 141,,40.213768,8.7986686,139,
B_51049,51049,BORORE BIVIO STAZ. FS,,40.217352,8.8084243,139,
B_51050,51050,BORORE EX HOTEL ULIMOS,,40.212718,8.7961687,139,
B_52154,52154,BORORE VIALE BACCURINI FR. 21 POSTE,,40.21371,8.803605,139,
B_5606,5606,COLONIA F.U.C.I.,,40.214881,8.7011476,139,
B_5208,5208,BORTIGALI VIA V.EMANUELE 95,,40.2824,8.83323,140,
B_51062,51062,BORTIGALI VIA STAZIONE 17,,40.280702,8.8419711,140,
B_5235,5235,BORTIGALI,,40.2831,8.83695,140,
B_5251,5251,MULARGIA CASELLO F.S.,,40.300203,8.7885753,140,
B_5416,5416,MULARGIA,,40.2938,8.7939719,140,
B_5023,5023,MADONNINA DELLA NEVE,,40.03279,9.23194,142,
B_5024,5024,DESULO VIA LAMARMORA 25,,40.0092,9.227314,142,
B_51401,51401,DESULO V.LE ALDO MORO FR. 30,,40.01178,9.227651,142,
B_51402,51402,DESULO VIA LAMARMORA 151,,40.01239,9.229329,142,
B_51403,51403,DESULO V.LE ALDO MORO 1,,40.01597,9.231911,142,
B_51404,51404,DESULO VIA CAGLIARI 48,,40.00688,9.224401,142,
B_51405,51405,DESULO VIA CAGLIARI FR 126,,40.00526,9.220975,142,
B_5164,5164,CALA GONONE,,40.28476,9.636434,329,
B_52076,52076,CALA GONONE CABINA ENEL,,40.28223,9.628035,329,
B_52078,52078,CALA GONONE VIA DEL BUE MARINO,,40.28320,9.632596,329,
B_52080,52080,CALA GONONE VIA LACONI,,40.27646,9.626288,329,
B_52087,52087,CALA GONONE HOTEL PALMASERA,,40.27904,9.629753,329,
B_52088,52088,CALA GONONE SP 26-ROTONDA,,40.27960,9.618745,329,
B_5158,5158,SP 38 CASA SPANU,,40.31298,9.53411,143,
B_52072,52072,SS 125 GALLERIA CALAGONONE,,40.27540,9.592245,143,
B_52084,52084,Z.I. DORGALI,,40.30601,9.559983,143,
B_5108,5108,SS 129 TRAVERSA DORGALI,,40.34618,9.508385,143,
B_5157,5157,DORGALI VIA LAMARMORA 61,,40.29489,9.585603,143,
B_52071,52071,DORGALI MARKET,,40.29107,9.586315,143,
B_52074,52074,DORGALI CIRCONVALLAZIONE,,40.29527,9.590317,143,
B_52075,52075,DORGALI VIA LAMARMORA  SS125,,40.29624,9.582739,143,
B_52077,52077,DORGALI VIA KENNEDY,,40.29568,9.58393,143,
B_52079,52079,DORGALI SA MADALENA,,40.28665,9.592583,143,
B_52081,52081,DORGALI CABINA,,40.28617,9.58692,143,
B_52082,52082,DORGALI VIA LAMARMORA FR 163,,40.28882,9.591488,143,
B_52083,52083,DORGALI MONUMENTO,,40.28959,9.586024,143,
B_4211,4211,DUALCHI,,40.23001,8.899922,144,
B_52155,52155,DUALCHI VIA ROMA FR. 69,,40.22939,8.895867,144,
B_5004,5004,FONNI PIAZZA ITALIA,,40.11836,9.25407,145,
B_5302,5302,FONNI VIA GRAZIA DELEDDA 5,,40.12105,9.254162,145,
B_51394,51394,FONNI VIA GRAZIA DELEDDA 215,,40.11889,9.250528,145,
B_51396,51396,FONNI VIA SASSARI 136,,40.12099,9.256462,145,
B_51398,51398,FONNI VIA SASSARI SN,,40.12312,9.258578,145,
B_5179,5179,GADONI VIA UMBERTO I-P.ZZA IV NOVEMBRE,,39.91194,9.184709,146,
B_51343,51343,GADONI VIA UMBERTO I,,39.914,9.185582,146,
B_52048,52048,GALTELLI` CAMPO SPORTIVO,,40.37995,9.603472,147,
B_5107,5107,GALTELLI`,,40.38799,9.614405,147,
B_52049,52049,GALTELLI` VIA NAZIONALE 141,,40.38425,9.609707,147,
B_5005,5005,PONTE ARATU SS 128,,40.11875,9.207693,148,
B_5238,5238,PONTE ARATU SS 389,,40.1189,9.208903,148,
B_5044,5044,GAVOI VIA ROMA 197,,40.15869,9.194988,148,
B_52127,52127,GAVOI VIA SETTEMBRINI FR. 2,,40.16280,9.195521,148,
B_52135,52135,GAVOI VIA ROMA 321,,40.16235,9.195355,148,
B_5165,5165,IRGOLI,,40.40897,9.631745,149,
B_52053,52053,IRGOLI VIA MARCONI 47,,40.40746,9.628078,149,
B_52055,52055,IRGOLI VIA MARCONI RIFORNITORE,,40.40837,9.635075,149,
B_5420,5420,LEI STAZIONE,,40.29982,8.9216811,151,
B_5411,5411,LEI PIAZZA GARIBALDI,,40.307450,8.920166,151,
B_53108,53108,LEI VIA V.EMANUELE 13,,40.304576,8.9199811,151,
B_5166,5166,LOCULI,,40.40727,9.613109,152,
B_52051,52051,LOCULI FARMACIA,,40.40532,9.610215,152,
B_51869,51869,MONTETUNDU,,40.59457,9.592705,153,
B_51870,51870,SP 50 TROCHEDDA,,40.59018,9.608867,153,
B_51867,51867,SP 50 LODDUE,,40.60015,9.564045,153,
B_51868,51868,SP 50 CRAPAZA,,40.6018,9.580264,153,
B_5081,5081,LODE`,,40.59135,9.542286,153,
B_51872,51872,SP 50 SANT`ANNA,,40.58752,9.619975,153,
B_5043,5043,LODINE,,40.14850,9.218151,154,
B_52125,52125,LODINE LARGO DANTE 93,,40.14805,9.219852,154,
B_7303,7303,LULA BIVIO,,40.40045,9.488006,155,
B_5069,5069,LULA,,40.47000,9.485666,155,
B_5607,5607,CHERCHIZZU,,40.269417,8.7975981,156,
B_5604,5604,MACOMER SA CRAPARZA,,40.252650,8.7390555,156,
B_5418,5418,STABIL. LEGLER,,40.230070,8.7762749,156,
B_5253,5253,MACOMER BIVIO OSPEDALE,,40.276548,8.7667352,156,
B_5415,5415,MACOMER OSPEDALE,,40.277024,8.7704271,156,
B_5605,5605,MACOMER VIVAIO FORESTALE,,40.238379,8.7157981,156,
B_53334,53334,MACOMER RANCH CUGUSI,,40.243196,8.7222207,156,
B_5207,5207,MACOMER AUTOSTAZIONE,,40.26829,8.772879,156,
B_5414,5414,MACOMER CORSO UMBERTO 120,,40.26550,8.779144,156,
B_5633,5633,MACOMER P.ZZA S.ANTONIO,,40.26388,8.770314,156,
B_5636,5636,MACOMER SCUOLE VIALE NENNI,,40.26680,8.764177,156,
B_5637,5637,MACOMER SCUOLE PIAZZA ITALIA,,40.26489,8.77357,156,
B_5638,5638,MACOMER C.SO UMBERTO ESSO,,40.26978,8.768914,156,
B_53329,53329,MACOMER VIA SARDEGNA,,40.265497,8.7774519,156,
B_53331,53331,MACOMER  BONU TRAU V.LE GRAMSCI,,40.262928,8.7635244,156,
B_53332,53332,MACOMER  BONU TRAU CASERMA,,40.260577,8.7593226,156,
B_53333,53333,MACOMER BONU TRAU COOP. EDIL.,,40.256715,8.7521279,156,
B_5003,5003,PADRU EBBAS,,40.16480,9.287183,157,
B_5002,5002,MAMOIADA MUNICIPIO,,40.2127,9.283954,157,
B_5217,5217,MAMOIADA VIA V.EMANUELE II FR 66,,40.21350,9.282105,157,
B_52119,52119,MAMOIADA VIA NUORO 24,,40.21678,9.280598,157,
B_52120,52120,MAMOIADA VIA V.EMANUELE II 85,,40.21657,9.279857,157,
B_52121,52121,MAMOIADA PIAZZA EUROPA,,40.21146,9.28385,157,
B_5417,5417,MEANA SARDO STAZIONE,,39.930381,9.0936723,158,
B_5030,5030,MEANA SARDO CASEIFICIO,,39.943150,9.0788825,158,
B_51410,51410,MEANA SARDO VIA ROMA 155,,39.94718,9.076005,158,
B_51411,51411,MEANA SARDO PIAZZA MAXIA,,39.94559,9.073325,158,
B_4212,4212,NORAGUGUME,,40.22468,8.919523,159,
B_52157,52157,NORAGUGUME V.LE REPUBBLICA 21,,40.22551,8.916807,159,
B_5056,5056,BADDE MANNA,,40.29739,9.34641,160,
B_5055,5055,NURVILE,,40.28117,9.34134,160,
B_52109,52109,SP 58 PONTE SU ASTRU,,40.28742,9.344527,160,
B_52101,52101,BAD'E CHERCU SP22 BIS,,40.29572,9.362215,160,
B_5077,5077,PRATO SARDO,,40.33003,9.287823,160,
B_5000,5000,NUORO STAZIONE ARST,,40.31629,9.319849,160,
B_5001,5001,NUORO OSPEDALE,,40.3267,9.3162,160,
B_5176,5176,NUORO STAZIONE,,40.320169,9.3239513,160,
B_5224,5224,NUORO ISTITUTO D'ARTE,,40.324276,9.3145189,160,
B_5225,5225,NUORO ISTITUTO TECNICO,,40.315351,9.31323,160,
B_5300,5300,NUORO VIA MONTALE,,40.3151,9.325587,160,
B_5611,5611,NUORO BISCOLLAI,,40.326897,9.3078685,160,
B_52035,52035,NUORO PIAZZA VENETO 42,,40.31642,9.325805,160,
B_5060,5060,NUORO VIA NENNI,,40.31717,9.330303,160,
B_1476,1476,NUORO VIA P. CATTE,,40.31871,9.330923,160,
B_52038,52038,NUORO OSP. ZONCHELLO,,40.31958,9.320472,160,
B_5110,5110,SS 129 CANTONIERA SA MENDULA,,40.31079,9.399296,161,
B_50163,50163,SP 46 PONTE FRATTALE,,40.31085,9.495316,161,
B_52089,52089,SP 46 LOC. SUVEGLIU,,40.2998,9.481315,161,
B_52097,52097,SP 46 RISTORANTE IL GRIFONE,,40.28676,9.454717,161,
B_52099,52099,OLIENA VIA NUORO 148,,40.28347,9.397018,161,
B_5159,5159,PONTE CANCEDDA,,40.28284,9.429376,161,
B_5062,5062,OLIENA,,40.27367,9.404855,161,
B_52092,52092,OLIENA VIA EMILIO LUSSU 80,,40.27842,9.411962,161,
B_52098,52098,OLIENA VIA NUORO 76,,40.2774,9.401452,161,
B_52140,52140,OLLOLAI VIA PALAI,,40.17683,9.177062,162,
B_5169,5169,OLLOLAI,,40.16861,9.179225,162,
B_52137,52137,OLLOLAI STAZIONE CARABINIERI,,40.16980,9.182176,162,
B_52138,52138,OLLOLLAI VIA PALAI-VIALE REPUBBLICA,,40.16926,9.175923,162,
B_52139,52139,OLLOLAI VIA SAN BASILIO FR 68,,40.16652,9.176284,162,
B_51388,51388,OLZAI VIA TALORO 9,,40.1849,9.146859,163,
B_5035,5035,OLZAI,,40.18207,9.147334,163,
B_51386,51386,OLZAI VIA TALORO-VIA GRAMSCI,,40.18009,9.145862,163,
B_5270,5270,SS.ANNUNZIATA,,40.59033,9.485235,137,
B_5271,5271,MAMONE,,40.573,9.41816,164,
B_5070,5070,ONANI`,,40.48448,9.440817,164,
B_5230,5230,ONIFAI,,40.40524,9.649635,165,
B_52148,52148,ONIFERI CARABINIERI,,40.26809,9.171674,166,
B_5215,5215,ONIFERI STAZIONE,,40.3174,9.170614,166,
B_5039,5039,ONIFERI VIA NAZIONALE 34,,40.27231,9.169901,166,
B_5613,5613,DISTRIBUTORE FINA,,40.306747,9.1942172,167,
B_5038,5038,ORANI PIAZZA ITALIA 26,,40.25018,9.177961,167,
B_52145,52145,ORANI CORSO GARIBALDI 183,,40.24843,9.179412,167,
B_52146,52146,ORANI CORSO ITALIA 22,,40.25390,9.182398,167,
B_52147,52147,ORANI CORSO GARIBALDI 122,,40.24872,9.176438,167,
B_52150,52150,ORANI VIA DANTE,,40.24906,9.180579,167,
B_5054,5054,BUDURRAI,,40.27395,9.336128,168,
B_52107,52107,SU CALAVRIGHE,,40.2533,9.33651,168,
B_52108,52108,PANDELAI,,40.26170,9.338583,168,
B_5051,5051,GHIRTANO,,40.22671,9.340361,168,
B_52110,52110,MONTE PIZZINNU,,40.22230,9.343218,168,
B_5052,5052,NAVRUSCHE`,,40.2302,9.336641,168,
B_5053,5053,NURUDAI,,40.23972,9.332455,168,
B_5049,5049,ORGOSOLO,,40.20383,9.35786,168,
B_52112,52112,ORGOSOLO VIA LOCOE,,40.2083,9.351914,168,
B_52113,52113,ORGOSOLO PIAZZA DON MUNTONI,,40.20526,9.354848,168,
B_52114,52114,ORGOSOLO VIA RINASCITA FR. 91,,40.20521,9.358302,168,
B_52115,52115,ORGOSOLO CORSO REPUBBLICA FR. 404,,40.2040,9.361198,168,
B_52116,52116,ORGOSOLO SP 58,,40.21258,9.353984,168,
B_52117,52117,ORGOSOLO CORSO REPUBBLICA 151,,40.2039,9.355076,168,
B_52118,52118,ORGOSOLO VIA NUORO 46 - DISTRIBUTORE,,40.20622,9.350857,168,
B_52061,52061,SS 125 P.I.P.,,40.41093,9.728013,169,
B_5105,5105,OROSEI,,40.37830,9.69711,169,
B_52058,52058,OROSEI VIA SAN FRANCESCO,,40.38059,9.688745,169,
B_52059,52059,OROSEI GIARDINETTI,,40.37662,9.690178,169,
B_52060,52060,OROSEI STAZIONE CARABINIERI,,40.3763,9.69089,169,
B_52062,52062,SS 125 HOTEL ALBA DORATA,,40.42552,9.767042,183,
B_5104,5104,SOS ALINOS,,40.43810,9.764933,183,
B_5628,5628,OROTELLI SCALO ARST,,40.32170,9.135759,170,
B_5615,5615,OROTELLI MUSSINZIA,,40.307884,9.1198815,170,
B_50682,50682,OROTELLI LOC. ORTIVAI,,40.312252,9.1214309,170,
B_50688,50688,OROTELLI CAPOLINEA AREA SOSTA,,40.303917,9.1135672,170,
B_5195,5195,ORTUERI PIAZZA MARCONI,,40.03545,8.986673,171,
B_51364,51364,ORTUERI C.SO UMBERTO I 197,,40.03843,8.981093,171,
B_51365,51365,ORTUERI PIAZZA MARTIRI,,40.03655,8.984704,171,
B_51367,51367,ORTUERI C.SO UMBERTO I 1,,40.03217,8.988057,171,
B_52042,52042,ORUNE CAMPO SPORTIVO,,40.41127,9.354065,172,
B_5074,5074,ORUNE,,40.40761,9.369096,172,
B_52044,52044,ORUNE STAZIONE CARABINIERI,,40.41250,9.368121,172,
B_52045,52045,ORUNE CORSO REPUBBLICA FR. 152,,40.41076,9.370127,172,
B_5168,5168,OSIDDA,,40.52379,9.218725,173,
B_5171,5171,OTTANA Z.I. ENICHEM,,40.24506,9.021116,174,
B_5170,5170,OTTANA VIALE GHITTI 18,,40.23414,9.037923,174,
B_5173,5173,OTTANA VIA ITALIA-DANCING,,40.23431,9.038499,174,
B_5178,5178,OTTANA PIAZZA S.NICOLA-CHIESA,,40.2338,9.042437,174,
B_51393,51393,OTTANA VIA REPUBBLICA 11,,40.23473,9.048703,174,
B_52132,52132,OVODDA CIMITERO,,40.09199,9.156994,175,
B_5006,5006,OVODDA,,40.09475,9.159933,175,
B_52130,52130,OVODDA CENTRO AVIS,,40.09503,9.163206,175,
B_51923,51923,SAN GIOVANNI SP 24,,40.61708,9.741365,150,
B_51922,51922,MONTE LONGU,,40.62046,9.732949,176,
B_5084,5084,POSADA,,40.63288,9.714768,176,
B_51921,51921,POSADA VIA GRAMSCI 21,,40.6288,9.72247,176,
B_5037,5037,SARULE VIA NAZIONALE 62,,40.22861,9.164232,178,
B_52142,52142,SARULE VIA NAZIONALE 173,,40.22609,9.165683,178,
B_52144,52144,SARULE VIA NAZIONALE FR. 4,,40.23206,9.1629,178,
B_50760,50760,SILANUS REG. MURA ULIMOS,,40.2873,8.8805785,179,
B_5209,5209,SILANUS PIAZZA CARRAGHENTU,,40.288973,8.8883757,179,
B_5244,5244,SILANUS CORSO VITT. EMANUELE 21,,40.28849,8.887166,179,
B_5245,5245,SILANUS CORSO VITT. EMANUELE 129,,40.289797,8.892845,179,
B_5246,5246,SILANUS CORSO MATTEOTTI 19,,40.287178,8.8960021,179,
B_50758,50758,SILANUS PIAZZA SANTA CROCE,,40.290100,8.8894445,179,
B_5623,5623,SINDIA P.ZZA PARROCCHIA,,40.29611,8.6557733,180,
B_50877,50877,SINDIA C.SO UMBERTO 6,,40.296050,8.66008,180,
B_50879,50879,SINDIA C.SO UMBERTO 169,,40.295779,8.650798,180,
B_5243,5243,SINISCOLA ISTITUTO AGRARIO M. PIRA,,40.59515,9.724955,181,
B_5103,5103,BERCHIDA ETFAS,,40.50699,9.788329,141,
B_52065,52065,CANT. BERCHIDA,,40.49650,9.778565,141,
B_52068,52068,SS 125 RISTORANTE ARENAS,,40.54004,9.786237,141,
B_5306,5306,SINISCOLA LICEO,,40.56887,9.710838,181,
B_51928,51928,SP 3 SAN NARCISIO,,40.58929,9.714008,181,
B_51936,51936,SA PREDA RUIA,,40.58202,9.761348,177,
B_5088,5088,LA CALETTA,,40.60653,9.746319,150,
B_51924,51924,LA CALETTA PIAZZA CADUTI DEL MARE,,40.60901,9.746476,150,
B_51937,51937,LA CALETTA VIA MARE 1,,40.60728,9.749318,150,
B_5101,5101,SANTA LUCIA SINISCOLA,,40.58117,9.777372,177,
B_52069,52069,CAPO COMINO ROSSO,,40.54596,9.783802,141,
B_5083,5083,SINISCOLA,,40.57501,9.692838,181,
B_51929,51929,SINISCOLA CIMITERO,,40.57811,9.697986,181,
B_51930,51930,SINISCOLA VIA SARDEGNA - SS125,,40.57010,9.704677,181,
B_51931,51931,SINISCOLA OSPEDALETTO,,40.56997,9.684493,181,
B_51932,51932,SINISCOLA VIA BERLINGUER - CARABINIERI,,40.57215,9.689147,181,
B_51933,51933,SINISCOLA COMUNITA' MONTANA,,40.57071,9.68404,181,
B_51934,51934,SINISCOLA CAMPO SPORTIVO,,40.57020,9.699147,181,
B_51332,51332,SP 61 KM 5.500,,39.98477,9.028145,182,
B_4147,4147,GRUGHE,,39.99366,9.046223,182,
B_5026,5026,PONTE TITTIRI,,40.01388,9.083033,182,
B_5028,5028,SAN MAURO,,40.00738,9.039508,182,
B_51369,51369,SS 388 KM 59.200,,40.0052,9.051316,182,
B_51370,51370,SS 388 KM 59.900,,40.0090,9.056826,182,
B_51377,51377,SP 31 CHINNELI,,40.03500,9.09848,182,
B_5025,5025,SORGONO FRONTE PIAZZA VITTORIA-CHIESA,,40.02633,9.102947,182,
B_5624,5624,SORGONO OSPEDALE SAN CAMILLO,,40.02194,9.099751,182,
B_5625,5625,SORGONO STAZIONE ARST,,40.027496,9.105349,182,
B_51376,51376,SORGONO CORSO IV NOVEMBRE-LICEO,,40.02899,9.106312,182,
B_51384,51384,TETI SP 4 KM 22.600,,40.09945,9.126871,184,
B_5033,5033,TETI CORSO ITALIA 74,,40.09648,9.11992,184,
B_51380,51380,TETI CORSO ITALIA FR. 13,,40.09406,9.118274,184,
B_51381,51381,TETI CORSO ITALIA 30,,40.09540,9.116974,184,
B_51383,51383,TETI CORSO ITALIA 96,,40.09601,9.121503,184,
B_5007,5007,TIANA,,40.06837,9.147593,185,
B_50427,50427,TIANA VIA ROMA 56,,40.06848,9.1456818,185,
B_50428,50428,TIANA VIA ROMA 5,,40.067380,9.1485642,185,
B_5008,5008,CANT. SA CODINA,,40.03221,9.16226,186,
B_50489,50489,TONARA BIVIO TELISERI,,40.022482,9.1818539,186,
B_5009,5009,TONARA VIA MONSIGNOR TORE FR. 32,,40.02416,9.170128,186,
B_51408,51408,TONARA SS 295,,40.02440,9.177488,186,
B_51409,51409,TONARA VIA MONSIGNOR TORE 89,,40.02411,9.173303,186,
B_5086,5086,TORPE`,,40.6258,9.675618,187,
B_51918,51918,TORPE`PIAZZA LIBERAZIONE,,40.62940,9.679093,187,
B_5363,5363,ARZANA SAN VINCENZO,,39.91673,9.521717,189,
B_30120,30120,SU ADU `E S`ABBA,,39.933381,9.5998357,0,
B_3152,3152,VILLAGRANDE STAZIONE,,39.921527,9.4769007,189,
B_5114,5114,BARI SARDO VIA CAGLIARI 91,,39.83990,9.646018,190,
B_5329,5329,BARI SARDO VIA GRAMSCI  FR. 5,,39.83962,9.645637,190,
B_30471,30471,BARI SARDO VIA TORTOLI' 7A,,39.84285,9.642997,190,
B_30472,30472,BARI SARDO VIA CAGLIARI 18,,39.84215,9.643673,190,
B_30474,30474,BARI SARDO CORSO V.EMANUELE 5,,39.8424,9.642863,190,
B_30478,30478,BARI SARDO CORSO V.EMANUELE 48,,39.842877,9.6386703,190,
B_30667,30667,BARI SARDO VIA MARE 4,,39.842172,9.6439819,0,
B_30477,30477,SS 125 CASA SCATTU,,39.82056,9.641125,190,
B_3142,3142,BARI SARDO TORRE DI BARI',,39.830597,9.6813978,0,
B_30492,30492,BAUNEI MONTE ARGIOLU - SS125,,40.02752,9.667014,191,
B_30493,30493,BAUNEI VIA ORIENTALE SARDA 134,,40.03008,9.664713,191,
B_30494,30494,BAUNEI VIA ORIENTALE SARDA - CHIESA,,40.03174,9.663248,191,
B_30495,30495,BAUNEI CASERMA CARABINIERI,,40.03497,9.660287,191,
B_5153,5153,BAUNEI,,40.03737,9.658075,191,
B_5198,5198,GENNA SELOLE,,40.0826,9.601871,191,
B_30490,30490,SANTA MARIA NAVARRESE VIA DOLAI,,39.98861,9.677109,476,
B_5151,5151,SANTA MARIA NAVARRESE,,39.98754,9.688167,476,
B_5262,5262,SANTA MARIA NAVARRESE PEDRASSA,,39.99524,9.675312,476,
B_30489,30489,SANTA MARIA NAVARRESE V.LE PEDRAS 56,,39.98960,9.684123,476,
B_5219,5219,BUON CAMMINO,,39.79507,9.65397,192,
B_5113,5113,CARDEDU,,39.79771,9.626105,192,
B_31607,31607,CARDEDU VIA MUNICIPIO 1,,39.799468,9.6269849,192,
B_3102,3102,BACCU PRAIDAS,,39.754271,9.6710147,0,
B_30473,30473,CARDEDU SS125 - CASEIFICIO,,39.79730,9.622655,192,
B_30475,30475,CARDEDU AGRITURISMO GENNA E LIONI,,39.80412,9.629072,192,
B_31610,31610,CARDEDU TENUTA ORRU',,39.79690,9.6179794,192,
B_31611,31611,CARDEDU CASA ARESU,,39.795630,9.6417839,192,
B_31614,31614,CARDEDU CASA MARCEDDU,,39.796215,9.6336248,192,
B_3110,3110,CARDEDU CASA AGUS,,39.771597,9.6375324,192,
B_3111,3111,CARDEDU CASA LORRAI,,39.777004,9.6471224,192,
B_3117,3117,GENN`E MASONI,,39.787571,9.6585849,192,
B_3119,3119,IS CARCURIS,,39.766831,9.6174653,192,
B_5218,5218,MUSEDDU,,39.78303,9.668527,480,
B_31622,31622,MUSEDDU PONTE DUE,,39.777426,9.6601813,480,
B_31623,31623,MUSEDDU LUNGOMARE,,39.77791,9.667765,480,
B_31624,31624,MUSEDDU PONTE UNO,,39.775365,9.6675764,480,
B_3127,3127,PELAU MANNU,,39.774253,9.6110044,192,
B_3128,3128,PERD`E PERA,,39.767295,9.6670665,0,
B_5119,5119,ELINI,,39.9000,9.5311,193,
B_3115,3115,GAIRO VECCHIO,,39.846571,9.5012205,194,
B_32324,32324,GAIRO VECCHIO CIMITERO,,39.851700,9.4964651,194,
B_3130,3130,PONTE TRICOLI,,39.825774,9.556972,194,
B_32334,32334,SP 28 CASA PIRAS,,39.814979,9.5645725,194,
B_3139,3139,SU SIRBONI HOTEL,,39.745446,9.6701821,0,
B_5135,5135,GAIRO SANT'ELENA,,39.84833,9.505368,194,
B_32323,32323,GAIRO S.E. VIA LIBERTA' 2,,39.849332,9.5044552,194,
B_32327,32327,GAIRO S.E. VIA LIBERTA' 71,,39.845203,9.5092056,194,
B_3114,3114,GAIRO TAQUISARA,,39.857578,9.4651529,194,
B_5149,5149,GIRASOLE,,39.9521,9.661413,195,
B_32844,32844,SA FRISA,,39.897533,9.5799999,196,
B_32003,32003,ILBONO SS198 KM 94.550,,39.89124,9.544261,196,
B_32843,32843,ILBONO SCUOLE MEDIE,,39.895300,9.538585,196,
B_5118,5118,ILBONO,,39.89369,9.5415902,196,
B_32000,32000,ILBONO PIAZZA S`ACACIA,,39.8934,9.544453,196,
B_32004,32004,ILBONO SS198 KM 93.900,,39.891123,9.5396518,196,
B_32020,32020,ILBONO VIA ROMA-BAR CARLETTO,,39.89265,9.548305,196,
B_5131,5131,GENN'E CRESIA,,39.78237,9.552465,197,
B_3126,3126,PELAEDDU,,39.792371,9.6044255,197,
B_32970,32970,JERZU SS 125 CASA PALMAS,,39.803930,9.5817009,197,
B_5190,5190,SAN GIORGIO,,39.57613,9.589864,203,
B_3158,3158,SVINCOLO SU CRABIOLU,,39.74200,9.575081,197,
B_5130,5130,SS 125 SA CANNA,,39.75106,9.574112,197,
B_3140,3140,TENUTA LOI,,39.786474,9.6086833,197,
B_5132,5132,JERZU,,39.79313,9.517897,197,
B_31979,31979,JERZU VIA UMBERTO I 69,,39.78967,9.520697,197,
B_31980,31980,JERZU OSPEDALETTO,,39.80061,9.514943,197,
B_31981,31981,JERZU VIA UMBERTO I 316,,39.7962,9.516682,197,
B_32957,32957,JERZU PAPA PISU,,39.787980,9.5214551,197,
B_5320,5320,LANUSEI DEPOSITO GALBANI,,39.87386,9.556566,198,
B_5321,5321,LANUSEI VV.FF.- INPS,,39.88014,9.551078,198,
B_5322,5322,LANUSEI ISTITUTO D'ARTE,,39.88297,9.545716,198,
B_5323,5323,LANUSEI ENAIP,,39.88497,9.537908,198,
B_32019,32019,LANUSEI GEOMETRI,,39.88094,9.547817,198,
B_3122,3122,LANUSEI STAZIONE,,39.87702,9.5478791,198,
B_5314,5314,LANUSEI MARCUSEI,,39.88020,9.536233,198,
B_5315,5315,LANUSEI COMUNITA' MONTANA,,39.87868,9.537496,198,
B_5316,5316,LANUSEI CENTRO AIAS,,39.87632,9.539302,198,
B_5317,5317,LANUSEI ISP.FORESTALE V.LE EUROPA,,39.87399,9.546335,198,
B_5318,5318,LANUSEI PIAZZA MAMELI,,39.87569,9.545085,198,
B_5319,5319,LANUSEI BIVIO OSPEDALE,,39.87645,9.54736,198,
B_5324,5324,LANUSEI CIMITERO,,39.88160,9.537905,198,
B_5325,5325,LANUSEI PIAZZA MARCIA,,39.88039,9.539877,198,
B_5328,5328,LOCERI,,39.85626,9.58247,199,
B_32015,32015,LOCERI VIA ROMA FR. 84,,39.85866,9.584863,199,
B_33129,33129,LOCERI VIA NAZIONALE 29,,39.857369,9.5813451,0,
B_32010,32010,SS 125 KM 146.500,,39.98229,9.661985,200,
B_5150,5150,LOTZORAI,,39.96886,9.660684,200,
B_5340,5340,DONIGALA FRAZ. LOTZORAI,,39.97177,9.671802,200,
B_30487,30487,SP 63 LOC. TANCAU,,39.98471,9.685,476,
B_3124,3124,OSINI VECCHIO,,39.827827,9.4936055,201,
B_3133,3133,SA SERRA COSTA,,39.809778,9.5462234,201,
B_5134,5134,OSINI,,39.82251,9.496816,201,
B_5193,5193,PERDASDEFOGU,,39.68161,9.440497,202,
B_31132,31132,PERDASDEFOGU  SCUOLE,,39.67796,9.442497,202,
B_31133,31133,PERDASDEFOGU C.SO V.EMANUELE 121,,39.67906,9.440935,202,
B_3101,3101,ARGIOLA ABRUGIADA,,39.82571,9.3379883,204,
B_3116,3116,GENN`E MANDARA,,39.830078,9.2986275,204,
B_3138,3138,SEUI STAZIONE,,39.836164,9.327077,204,
B_3137,3137,SEUI,,39.839453,9.3239953,204,
B_30639,30639,SEUI VIA ROMA 62,,39.84085,9.3198761,204,
B_30640,30640,SEUI VIA ROMA-RIFORNITORE,,39.834929,9.3272698,204,
B_5204,5204,COA SERRA,,40.02172,9.533215,205,
B_5206,5206,PLANU MANNU,,39.99464,9.591141,205,
B_30512,30512,SP 56 RIE MAORE,,39.99926,9.581988,205,
B_30513,30513,SP 56 SANT`EFISIO,,39.98675,9.620199,205,
B_5205,5205,SA MOLA,,40.00382,9.570671,205,
B_30511,30511,TALANA VIA V.EMANUELE FR 99,,40.04096,9.493334,205,
B_5196,5196,TALANA,,40.03858,9.491922,205,
B_30509,30509,TALANA VIA NUORO FR. 22,,40.0426,9.498081,205,
B_30510,30510,TALANA  PIAZZA SANTA MARIA,,40.04136,9.497064,205,
B_3141,3141,TENUTA USAI,,39.733945,9.5770044,206,
B_30350,30350,TERTENIA TUERRA,,39.681350,9.5776043,206,
B_30464,30464,TERTENIA LOC. PALU 'E CERBUS,,39.71003,9.5805965,206,
B_3081,3081,TERTENIA CIMITERO,,39.70293,9.578684,206,
B_5129,5129,TERTENIA EX CASEIFICIO,,39.68950,9.580261,206,
B_30348,30348,TERTENIA BIVIO SARRALA,,39.691829,9.5812487,206,
B_30465,30465,TERTENIA VIA ROMA 199-PIAZZA CADUTI,,39.69622,9.577868,206,
B_30466,30466,TERTENIA VIA ROMA 119,,39.69860,9.576827,206,
B_5147,5147,ARBATAX,,39.93673,9.706829,207,
B_30562,30562,ARBATAX CARTIERA,,39.932050,9.6961541,207,
B_30563,30563,ARBATAX COLONIA,,39.93341,9.702476,207,
B_5311,5311,PORTO FRAILIS,,39.925127,9.7041819,207,
B_30558,30558,ARBATAX VERDE MARE,,39.925245,9.6980278,207,
B_32007,32007,ARBATAX PORTO FRAILIS,,39.92691,9.702612,207,
B_32011,32011,ARBATAX VILLAGGIO CARTIERA,,39.92869,9.700684,207,
B_3151,3151,ORRI` SPIAGGIA CAPOLINEA,,39.897771,9.6804952,0,
B_30566,30566,ORRI' PRIMO CHIOSCO,,39.901845,9.6816702,0,
B_3143,3143,TORTOLI' SCUOLE ELEMENTARI,,39.92741,9.672207,207,
B_3154,3154,TORTOLI' VIA SCORCU,,39.92652,9.654772,207,
B_3120,3120,IS COGOTTIS,,39.929103,9.6857556,207,
B_3155,3155,TORTOLI' ISTITUTO ALBERGHIERO,,39.92667,9.664164,207,
B_5148,5148,TORTOLI' FRA LOCCI,,39.92693,9.65512,207,
B_5155,5155,TORTOLI' ASL PRETURA,,39.928101,9.672229,207,
B_30484,30484,TORTOLI' VIA GEN.TOSCIRI 4,,39.93011,9.65975,207,
B_32005,32005,TORTOLI' VIA FODDEDDU FR. 155,,39.92405,9.662734,207,
B_32006,32006,TORTOLI' CASE GESCAL,,39.92895,9.677586,207,
B_32008,32008,TORTOLI' VIALE SANTA CHIARA,,39.92868,9.652868,207,
B_5200,5200,ARDALI,,40.01009,9.635364,208,
B_32012,32012,SP 55 KM 4.100,,40.01854,9.636708,208,
B_5201,5201,TRIEI,,40.03818,9.640606,208,
B_32014,32014,TRIEI VIA V.EMANUELE III 35,,40.03368,9.640716,208,
B_5133,5133,ULASSAI,,39.81168,9.5005,209,
B_30778,30778,ULASSAI POSTE,,39.80987,9.500567,209,
B_30780,30780,ULASSAI VIA MARCONI 196,,39.80873,9.5027214,209,
B_5156,5156,CANT. GIUSTIZIERI,,40.09765,9.530229,210,
B_32013,32013,SS 125 GENNA SILANA,,40.15859,9.507937,210,
B_30505,30505,URZULEI CAMPAGNA 1,,40.07673,9.514456,210,
B_30506,30506,URZULEI CAMPAGNA 2,,40.06732,9.517071,210,
B_30507,30507,URZULEI CAMPAGNA 3,,40.05658,9.52121,210,
B_5197,5197,URZULEI,,40.09548,9.511958,210,
B_30501,30501,URZULEI SP37 - HODOCCORO,,40.08549,9.510212,210,
B_30502,30502,URZULEI VIA S.GIORGIO FARMACIA,,40.09490,9.508798,210,
B_30503,30503,URZULEI VIA S.GIORGIO-PENSILINA,,40.09364,9.505551,210,
B_30504,30504,URZULEI VIA S.GIORGIO-SAN SEBASTIANO,,40.09317,9.50543,210,
B_30508,30508,URZULEI VIA SAN GIORGIO-SA CANNETTA,,40.09221,9.50385,210,
B_3129,3129,PONTE SAN GEROLAMO,,39.831271,9.4069647,211,
B_3147,3147,USSASSAI STAZIONE ARST,,39.834726,9.442817,211,
B_3146,3146,USSASSAI,,39.808367,9.3967827,211,
B_30937,30937,USSASSAI VIA NAZIONALE 39,,39.809679,9.3953299,211,
B_3112,3112,ESILE,,39.947945,9.5305224,0,
B_3131,3131,PREDA RUBIA,,39.948630,9.5498781,212,
B_3132,3132,RIU TORTU,,39.946297,9.5647257,212,
B_3145,3145,TRICARAI,,39.949246,9.5806822,212,
B_30119,30119,SU SUERGIU,,39.940830,9.5915317,212,
B_5123,5123,VILLAGRANDE PIAZZA MARTIRI,,39.96035,9.506441,212,
B_30102,30102,VILLAGRANDE VIA DANTE 128,,39.95936,9.5047828,212,
B_30103,30103,VILLAGRANDE VIA ROMA 6-8,,39.96278,9.5049484,212,
B_30105,30105,VILLAGRANDE VIA DANTE 50,,39.96161,9.5051037,212,
B_5115,5115,VILLAGRANDE VIA ROMA 236A,,39.958826,9.5069799,212,
B_30113,30113,VILLAGRANDE VIA ROMA 350,,39.955848,9.5102009,212,
B_30110,30110,VILLANOVA STRISAILI BAR OLIANAS,,39.960253,9.4631198,213,
B_5125,5125,VILLANOVA STRISAILI,,39.95902,9.465137,213,
B_30108,30108,VILLANOVA STRISAILI VIA LAMARMORA 2,,39.95625,9.4681856,213,
B_4020,4020,ABBASANTA F.S.,,40.12660,8.816261,214,
B_41151,41151,ABBASANTA MUNICIPIO,,40.12399,8.821068,214,
B_41152,41152,ABBASANTA VIA V.EMANUELE 48,,40.12354,8.81945,214,
B_41153,41153,ABBASANTA VIA MATTEOTTI,,40.12298,8.825402,214,
B_4126,4126,SANT' AGOSTINO,,40.13631,8.743152,214,
B_4125,4125,SP 15 TANCA REGIA,,40.14006,8.767884,214,
B_4136,4136,AIDOMAGGIORE,,40.17179,8.856388,215,
B_40980,40980,ALBAGIARA VIA CAGLIARI 23,,39.78859,8.860563,216,
B_4091,4091,ALBAGIARA,,39.7839,8.863667,216,
B_4014,4014,ALES CORSO GRAMSCI 20,,39.7705,8.813884,217,
B_40993,40993,ALES PIAZZA GRAMSCI 86,,39.76966,8.81092,217,
B_40994,40994,ALES VIA AMSICORA 37,,39.76677,8.815669,217,
B_40995,40995,ALES VIA IV NOVEMBRE-ASL,,39.76984,8.8167,217,
B_40996,40996,ALES CORSO UMBERTO I 132,,39.76657,8.817525,217,
B_4013,4013,ZEPPARA,,39.77402,8.829019,217,
B_4022,4022,ALLAI,,39.95685,8.865163,218,
B_41197,41197,ALLAI VIA PONTE NUOVO 8 SCUOLE,,39.95814,8.86132,218,
B_4055,4055,ARBOREA,,39.77443,8.582289,219,
B_40868,40868,ARBOREA VIA ROMA SP 49 KM 8,,39.76893,8.582334,219,
B_40866,40866,SP 49 S`UNGRONI,,39.79660,8.582085,219,
B_4058,4058,IDROVORA SASSU,,39.82590,8.57832,479,
B_4192,4192,MARINA ARBOREA STRADA 26,,39.80179,8.548353,0,
B_40869,40869,ARBOREA SP 49 BIVIO STRADA 13,,39.75372,8.582403,219,
B_4150,4150,ARDAULI,,40.08498,8.911981,220,
B_41167,41167,ARDAULI VIA DIAZ,,40.08617,8.909857,220,
B_41168,41168,ARDAULI V.LE GRAMSCI MUNICIPIO,,40.08126,8.911599,220,
B_4080,4080,SAN QUIRICO,,40.09382,8.891945,220,
B_4082,4082,ASSOLO,,39.80905,8.918771,221,
B_41353,41353,ASSOLO VIA ARBOREA 34,,39.8100,8.916877,221,
B_4004,4004,ASUNI,,39.87232,8.946515,222,
B_41208,41208,ASUNI VIA DANTE 38,,39.87088,8.94516,222,
B_4104,4104,BARADILI,,39.72104,8.897639,223,
B_4122,4122,BARATILI,,39.99274,8.555731,224,
B_41245,41245,BARATILI VIA ROMA 30,,39.99329,8.55219,224,
B_41247,41247,BARATILI VIA ROMA 142,,39.9927,8.560159,224,
B_4105,4105,BARESSA,,39.71240,8.873596,225,
B_41013,41013,BARESSA VIA ROMA 28,,39.71402,8.876475,225,
B_4161,4161,BAULADU,,40.0203,8.67201,226,
B_41144,41144,BAULADU VIA ALAGON,,40.02141,8.67088,226,
B_41145,41145,BAULADU VIA DELLA LIBERTA' 55,,40.02272,8.673276,226,
B_4026,4026,BIDONI`,,40.11230,8.934417,227,
B_4121,4121,BONARCADO,,40.09682,8.655301,228,
B_4511,4511,BONARCADO CORSO ITALIA 120 - SANTUARIO,,40.09987,8.654559,228,
B_41303,41303,BONARCADO VIA EUROPA FR. 43,,40.09428,8.653907,228,
B_41304,41304,BONARCADO VIA SEGNI 39,,40.09423,8.655878,228,
B_4023,4023,BORONEDDU,,40.11280,8.871638,229,
B_4156,4156,BORONEDDU SP 28,,40.11326,8.871625,229,
B_4048,4048,BOSA STAZIONE,,40.293078,8.5013083,230,
B_5058,5058,BOSA PIAZZA MANIN,,40.29779,8.498426,230,
B_41274,41274,BOSA VIALE ALGHERO - LICEO,,40.29727,8.4903,230,
B_41653,41653,BOSA VIALE ALGHERO 7,,40.29739,8.494005,230,
B_41654,41654,BOSA VIALE ALGHERO - BAR MUA',,40.29720,8.4861,230,
B_41655,41655,BOSA VIALE MARCONI - CAMPO SPORTIVO,,40.29987,8.500705,230,
B_41656,41656,BOSA BIVIO SANTA CATERINA,,40.29209,8.503316,230,
B_5221,5221,BOSA MARINA,,40.28910,8.481832,230,
B_41123,41123,BOSA MARINA COLONIE,,40.285279,8.4833548,230,
B_41124,41124,BOSA MARINA CASA DEL CORALLO,,40.292119,8.4819732,230,
B_4302,4302,BOSA ABBA DRUCCHE,,40.318396,8.4654477,230,
B_41121,41121,SP 49 CUMPOLTITTU,,40.322434,8.4561054,230,
B_4303,4303,BOSA ABBA MALA,,40.274845,8.5037712,230,
B_5212,5212,PONTE BOSA MARINA,,40.29269,8.484451,0,
B_43785,43785,LOC. BADDE ORCA,,40.342303,8.4926218,230,
B_4308,4308,CAPO MARRARGIU,,40.328817,8.4364662,230,
B_41130,41130,SP 49 TORRE ARGENTINA,,40.32680,8.4408265,230,
B_7069,7069,SCUOLA AGRARIA,,40.39974,8.464993,230,
B_4324,4324,SU CAULE,,40.394228,8.4049202,230,
B_4325,4325,TURAS,,40.272797,8.4844849,230,
B_4032,4032,BUSACHI,,40.03,8.892766,231,
B_41180,41180,BUSACHI VIA BRIGATA SASSARI 62,,40.03398,8.889191,231,
B_41183,41183,BUSACHI VIA BRIGATA SASSARI 314,,40.03233,8.89734,231,
B_41184,41184,SP 71 KM 3.300,,40.01503,8.921316,231,
B_4033,4033,LA DIGHETTA,,40.01240,8.869471,231,
B_4802,4802,CABRAS MUNICIPIO,,39.93024,8.531383,232,
B_4803,4803,CABRAS VIA LEOPARDI FR. 24,,39.92751,8.53091,232,
B_41212,41212,CABRAS VIA ROSSINI 4,,39.92980,8.538396,232,
B_41213,41213,CABRAS VIA GARIBALDI 145,,39.9337,8.534917,232,
B_41216,41216,CABRAS VIA LEOPARDI 68,,39.92464,8.532884,232,
B_41217,41217,CABRAS VIA TRIESTE 44,,39.92825,8.537915,232,
B_41219,41219,CABRAS VIA THARROS 132,,39.92682,8.528212,232,
B_41220,41220,CABRAS VIA THARROS-MUSEO,,39.9247,8.526085,232,
B_4143,4143,IS ARUTTAS,,39.95235,8.403195,0,
B_4144,4144,SAN GIOVANNI DI SINIS,,39.88229,8.43842,0,
B_4124,4124,SOLANAS CENTRO,,39.92966,8.552874,232,
B_4162,4162,SOLANAS VIA SAN PIETRO-SP5,,39.93079,8.553253,232,
B_41254,41254,SS 292 ETFAS,,40.13265,8.498328,272,
B_41249,41249,IS ARENAS,,40.06853,8.497778,272,
B_4070,4070,CUGLIERI,,40.18898,8.567599,233,
B_41255,41255,CUGLIERI C.SO UMBERTO 199,,40.18675,8.565863,233,
B_41256,41256,CUGLIERI C.SO UMBERTO-VIA LITTORIO,,40.18755,8.564894,233,
B_41258,41258,CUGLIERI C.SO UMBERTO 3,,40.19140,8.571648,233,
B_4071,4071,SANTA CATERINA,,40.10407,8.491838,272,
B_41253,41253,SANTA CATERINA DISTRIBUTORE,,40.11135,8.490153,272,
B_4072,4072,S`ARCHITTU,,40.08961,8.493072,272,
B_41250,41250,S`ARCHITTU  TORRE,,40.08459,8.491784,272,
B_4015,4015,CURCURIS,,39.74711,8.83233,234,
B_41016,41016,CURCURIS VIA ORISTANO,,39.74571,8.829556,234,
B_4322,4322,LOC. S`ENA,,40.262767,8.5327777,235,
B_5140,5140,FLUSSIO,,40.26668,8.540078,235,
B_41266,41266,FLUSSIO VIA NAZIONALE 26,,40.267229,8.5423205,235,
B_41176,41176,FORDONGIANUS TERME,,39.99981,8.809819,236,
B_41177,41177,FORDONGIANUS SS 388,,39.99838,8.811498,236,
B_4034,4034,FORDONGIANUS,,39.99506,8.810125,236,
B_41174,41174,FORDONGIANUS VIA IPSITANI 116,,39.99580,8.811364,236,
B_41175,41175,FORDONGIANUS VIA ROMA FR 125,,39.99297,8.812907,236,
B_1094,1094,GENONI VIA ROMA 60,,39.79302,9.00695,237,
B_41417,41417,GENONI VIA ROMA 5,,39.79370,9.010057,237,
B_41418,41418,GENONI VIA PADRE PINETTI 24,,39.79205,9.011878,237,
B_41159,41159,SP 27 KM 0.700 OR,,40.12368,8.861806,238,
B_4021,4021,GHILARZA VIA MATTEOTTI,,40.12104,8.834525,238,
B_41154,41154,GHILARZA CORSO UMBERTO I,,40.11932,8.830809,238,
B_41155,41155,GHILARZA POLIAMBULATORIO,,40.12258,8.829839,238,
B_41156,41156,GHILARZA P.ZZA SAN PALMERIO-TORRE,,40.12496,8.837509,238,
B_41157,41157,GHILARZA VIA MANDROLISAI,,40.12485,8.845121,238,
B_41196,41196,GHILARZA VIA GENNARGENTU 2-SCUOLE,,40.11753,8.832222,238,
B_4106,4106,ZURI,,40.11989,8.87619,311,
B_4017,4017,GONNOSCODINA,,39.7003,8.834578,239,
B_41008,41008,GONNOSCODINA VIA ROMA 40,,39.69841,8.835399,239,
B_4095,4095,FIGU,,39.76127,8.861797,240,
B_4094,4094,GONNOSNO' MUNICIPIO,,39.75947,8.871981,240,
B_40977,40977,GONNOSNO' CORSO UMBERTO 43,,39.76078,8.871687,240,
B_40978,40978,GONNOSNO' CORSO UMBERTO 54,,39.76166,8.873343,240,
B_1102,1102,GONNOSTRAMATZA,,39.68112,8.83333,241,
B_41006,41006,GONNOSTRAMATZA VIA KENNEDY 5,,39.6817,8.836022,241,
B_41007,41007,GONNOSTRAMATZA BIVIO MASULLAS,,39.68746,8.832101,241,
B_5111,5111,SANTA SOFIA,,39.862696,9.1252179,243,
B_4309,4309,CUBEDDU,,39.848928,9.0864661,243,
B_43003,43003,FUNTANA MAORE,,39.851768,9.0699052,243,
B_4323,4323,FORNACE,,39.822076,9.0419251,243,
B_41347,41347,LACONI CORSO GARIBALDI 108,,39.856,9.052129,243,
B_4312,4312,LACONI STAZIONE,,39.860353,9.0559312,243,
B_4088,4088,SP 16 BIS BORGATA CRASTU,,39.81051,9.0386,243,
B_5016,5016,LACONI,,39.85424,9.052302,243,
B_41413,41413,LACONI CORSO GARIBALDI 17,,39.85286,9.055306,243,
B_41414,41414,LACONI CORSO GRAMSCI,,39.85133,9.052978,243,
B_43404,43404,MAGOMADAS LOC. SU MERIAGRU-ESSO,,40.260216,8.5257277,244,
B_4319,4319,SANTA MARIA DEL MARE,,40.260676,8.4816839,245,
B_4320,4320,SA LUMENERA,,40.268301,8.4864243,245,
B_5141,5141,MAGOMADAS,,40.26435,8.525487,244,
B_41265,41265,MAGOMADAS VIA CAGLIARI FR. 4,,40.26163,8.526553,244,
B_43403,43403,MAGOMADAS VIA V. EMANUELE 21,,40.262201,8.5264312,244,
B_41037,41037,MASONGIU SANT'ANNA VIA ALGHERO 16,,39.81192,8.647931,247,
B_4052,4052,MARRUBIU VIA NAPOLI 108,,39.7493,8.63757,246,
B_40871,40871,MARRUBIU VIA ORISTANO 152,,39.74940,8.628628,246,
B_40872,40872,MARRUBIU VIA ORISTANO 87,,39.75103,8.632647,246,
B_40873,40873,MARRUBIU STAZIONE FS,,39.75275,8.640692,246,
B_4098,4098,MASONGIU SANT'ANNA,,39.81350,8.65137,247,
B_4158,4158,MASULLAS VIA NAZIONALE 20,,39.69957,8.784634,248,
B_41022,41022,MASULLAS VIA S.SATTA,,39.70430,8.782994,248,
B_41025,41025,MASULLAS VIA NAZIONALE 74,,39.69974,8.782009,248,
B_4117,4117,SP9 SALIDAS,,40.03287,8.616441,249,
B_4116,4116,MILIS,,40.04913,8.637324,249,
B_41293,41293,MILIS VIA VERDI-A. MORO,,40.05210,8.635151,249,
B_41294,41294,MILIS VIA ALDO MORO 26,,40.05205,8.637203,249,
B_41295,41295,MILIS VIA ALDO MORO FR. 43,,40.0520,8.639718,249,
B_43625,43625,MODOLO FONTE VILLA MALVAROSA,,40.270883,8.5278996,250,
B_43628,43628,MODOLO SU CARMINE SP 35,,40.273547,8.5250465,250,
B_4314,4314,MODOLO,,40.274647,8.5296025,250,
B_4087,4087,MOGORELLA,,39.8633,8.857606,251,
B_41362,41362,MOGORELLA VIA RISORGIMENTO 37,,39.86483,8.858784,251,
B_4067,4067,MOGORO,,39.68582,8.779371,252,
B_41030,41030,MOGORO VIA FOIS 81,,39.68742,8.777593,252,
B_41031,41031,MOGORO VIA GRAZIA DELEDDA 2,,39.68546,8.774136,252,
B_41032,41032,MOGORO VIA MAXIA-SCUOLE,,39.68317,8.772068,252,
B_41033,41033,MOGORO VIA ANTONIO GRAMSCI 71,,39.68208,8.774532,252,
B_41034,41034,MOGORO VIA ANTONIO GRAMSCI 168,,39.68350,8.777967,252,
B_41035,41035,MOGORO VIA ANTONIO GRAMSCI 5,,39.68050,8.771144,252,
B_7067,7067,SERRA VENOSA,,40.38903,8.489455,253,
B_7066,7066,MONTRESTA,,40.37459,8.500072,253,
B_43782,43782,MONTRESTA VIA ROMA 41,,40.372554,8.4963528,253,
B_4018,4018,MORGONGIORI,,39.74536,8.769925,254,
B_41018,41018,MORGONGIORI VIA V.EMANUELE 92,,39.74695,8.771426,254,
B_4115,4115,NARBOLIA,,40.05158,8.578093,256,
B_41277,41277,NARBOLIA VIA UMBERTO I 18,,40.04728,8.57465,256,
B_41278,41278,NARBOLIA VIA UMBERTO I 12,,40.04938,8.57602,256,
B_41280,41280,NARBOLIA VIA PRINCIPE AMEDEO 56,,40.04702,8.577641,256,
B_41187,41187,NEONELI VIA ROMA-VIA UMBERTO,,40.06066,8.944281,257,
B_4030,4030,NEONELI,,40.06464,8.944641,257,
B_41189,41189,NEONELI VIA ROMA 166,,40.06625,8.948943,257,
B_41190,41190,NUGHEDU SANTA VITTORIA VIA BERLINGUER 2,,40.10190,8.960321,259,
B_4028,4028,NUGHEDU SANTA VITTORIA,,40.10178,8.953868,259,
B_41241,41241,NURACHI CORSO ELEONORA 203,,39.96906,8.540861,260,
B_4074,4074,NURACHI,,39.97387,8.53892,260,
B_41239,41239,NURACHI CORSO ELEONORA 41,,39.9775,8.538345,260,
B_4006,4006,NURECI,,39.82435,8.974234,261,
B_4036,4036,OLLASTRA SIMAXIS,,39.95226,8.734113,262,
B_41170,41170,OLLASTRA SIMAXIS VIA LAMARMORA 20,,39.94981,8.732776,262,
B_4111,4111,MASSAMA BIVIO ZEDDIANI,,39.9452,8.602229,475,
B_41282,41282,SP 9 FORESTALE,,39.95822,8.599379,475,
B_41314,41314,SP 9 KM 11.000,,39.94579,8.614435,475,
B_4165,4165,NURAXINIEDDU IST. AGRARIO,,39.92887,8.58979,475,
B_4133,4133,TORREGRANDE PONTILE,,39.89793,8.532481,473,
B_41224,41224,TORREGRANDE INIZIO STRADA PONTILE,,39.90768,8.523067,473,
B_41225,41225,TORREGRANDE CAMP. SPINNAKER,,39.90422,8.530239,473,
B_4075,4075,DONIGALA FENUGHEDU,,39.93600,8.57294,474,
B_4076,4076,DONIGALA FENUGHEDU VIA ORISTANO 3-RIMEDIO,,39.92861,8.576216,474,
B_4600,4600,MASSAMA PIAZZA CHIESA,,39.9429,8.604665,475,
B_4112,4112,NURAXINIEDDU,,39.93442,8.594333,475,
B_4000,4000,ORISTANO STAZIONE ARST,,39.90173,8.59125,263,
B_4002,4002,ORISTANO Z.I.,,39.88955,8.588516,263,
B_4138,4138,ORISTANO STAZIONE F.S.,,39.90178,8.603299,263,
B_4215,4215,ORISTANO VIA GENNARGENTU,,39.89462,8.594076,263,
B_4216,4216,ORISTANO Z.I. VIA MADRID,,39.89007,8.588127,263,
B_4252,4252,ORISTANO VIALE DIAZ-SCUOLE,,39.9006,8.586577,263,
B_40856,40856,ORISTANO VIA CAGLIARI 397,,39.89383,8.597485,263,
B_40857,40857,ORISTANO VV. FF.,,39.89120,8.597465,263,
B_40858,40858,ORISTANO VIA DORANDO PETRI,,39.89451,8.59051,263,
B_41058,41058,ORISTANO VIA V. CASU 16,,39.90769,8.600071,263,
B_41059,41059,ORISTANO VIA SARDEGNA 21,,39.90867,8.592438,263,
B_41060,41060,ORISTANO VIA CAGLIARI 200,,39.90566,8.588326,263,
B_41137,41137,ORISTANO VIA CAGLIARI 103,,39.90704,8.588388,263,
B_41138,41138,ORISTANO CUOZZO,,39.91332,8.586443,263,
B_4039,4039,SILI`,,39.91914,8.623793,263,
B_41057,41057,SILI' VIA MARTIRI DEL CONGO 79,,39.91727,8.616795,263,
B_4134,4134,TORREGRANDE,,39.90722,8.515243,473,
B_4501,4501,TORREGRANDE SPIAGGIA,,39.90836,8.511468,473,
B_41223,41223,TORREGRANDE VIA STELLA MARIS 3,,39.90700,8.51721,473,
B_4099,4099,PAU,,39.79280,8.801466,265,
B_40991,40991,PAU VIA MONTE ARCI 12,,39.78974,8.801277,265,
B_4113,4113,PAULILATINO,,40.08416,8.763558,266,
B_4510,4510,PAULILATINO SCUOLE MEDIE,,40.08739,8.766256,266,
B_41146,41146,PAULILATINO V.LE DELLA LIBERTA' 27,,40.08633,8.76097,266,
B_4103,4103,POMPU CIRCONVALLAZIONE OVEST,,39.72405,8.794712,267,
B_41027,41027,POMPU VIA SANTU MIALI,,39.72632,8.796837,267,
B_4073,4073,RIOLA SARDO VIA UMBERTO I 104,,39.99327,8.541413,270,
B_41236,41236,RIOLA SARDO VIA UMBERTO I 14,,39.99678,8.538778,270,
B_41238,41238,RIOLA SARDO VIA UMBERTO  I 138,,39.99131,8.541778,270,
B_41244,41244,RIOLA SARDO VIA ROMA 60,,39.99479,8.543605,270,
B_4086,4086,RUINAS,,39.90725,8.896567,271,
B_41359,41359,RUINAS VIA CHIESA 1,,39.90318,8.893344,271,
B_41360,41360,RUINAS VIA SAN GIORGIO 56,,39.90511,8.895693,271,
B_4059,4059,CIRRAS,,39.8441,8.58798,479,
B_4060,4060,SANTA GIUSTA MUNICIPIO,,39.87849,8.608556,274,
B_4157,4157,SANTA GIUSTA VIA GIOVANNI XXIII,,39.87888,8.608869,274,
B_40859,40859,SANTA GIUSTA VIA GIOVANNI XXIII 16,,39.88269,8.605503,274,
B_40861,40861,SANTA GIUSTA SCUOLA A.N.A.P.,,39.87401,8.610335,274,
B_4152,4152,CUCCURU MANNU,,39.98523,8.455275,0,
B_4170,4170,PUTZU IDU,,40.02893,8.407626,269,
B_41235,41235,SP 10 KM 13.000,,40.0214,8.453464,269,
B_4153,4153,S`ARENA SCOADA,,40.01447,8.418285,0,
B_4118,4118,SAN VERO MILIS,,40.01295,8.600442,276,
B_41286,41286,SAN VERO MILIS VIA UMBERTO 8,,40.00869,8.597901,276,
B_41288,41288,SAN VERO MILIS VIA DEL BIANCO 106,,40.0167,8.602107,276,
B_41289,41289,SAN VERO MILIS VIA R.MARGHERITA 100,,40.01493,8.597759,276,
B_41290,41290,SAN VERO MILIS VIA PUTZU IDU 16,,40.0126,8.594339,276,
B_4172,4172,SU PALLOSU,,40.04778,8.403946,269,
B_4131,4131,SAGAMA,,40.26112,8.577736,277,
B_41329,41329,SP 33 PONTI ECCIU,,39.97359,8.986486,278,
B_41330,41330,SP 33 KM 27.800,,39.97487,9.001605,278,
B_41204,41204,SAMUGHEO VIA KENNEDY-VIA GRAMSCI,,39.95461,8.94816,278,
B_4003,4003,SAMUGHEO,,39.94730,8.939971,278,
B_41199,41199,SAMUGHEO VIA V.EMANUELE 135,,39.94339,8.935903,278,
B_41202,41202,SAMUGHEO VIA GRAMSCI 110,,39.95068,8.944282,278,
B_41203,41203,SAMUGHEO VIA GRAMSCI 168,,39.9537,8.946978,278,
B_41205,41205,SAMUGHEO VIA KENNEDY 127,,39.94870,8.946046,278,
B_41206,41206,SAMUGHEO CIMITERO,,39.94301,8.938126,278,
B_4050,4050,SAN NICOLO` D`ARCIDANO,,39.68325,8.646976,275,
B_40882,40882,SAN NICOLO` D`ARCIDANO CIMITERO,,39.68615,8.644734,275,
B_4316,4316,PORTA PARIS,,40.199448,8.6839675,279,
B_4180,4180,SAN LEONARDO,,40.177618,8.6646652,279,
B_4120,4120,SANTU LUSSURGIU,,40.14163,8.658127,279,
B_41307,41307,SANTU LUSSURGIU V.LE AZUNI-SP 15,,40.1367,8.652118,279,
B_41308,41308,SANTU LUSSURGIU V.LE AZUNI 14,,40.13830,8.649716,279,
B_41309,41309,SANTU LUSSURGIU V.LE AZUNI 70,,40.14165,8.65106,279,
B_41310,41310,SANTU LUSSURGIU V.LE AZUNI FR 199,,40.14335,8.654233,279,
B_4304,4304,SCANO MONTIFERRO BIVIO SENNARIOLO,,40.219126,8.5872221,280,
B_4069,4069,SCANO MONTIFERRO,,40.21362,8.589018,280,
B_42233,42233,SCANO MONTIFERRO CENTRO MULTIMEDIALE,,40.216465,8.5863451,280,
B_41260,41260,SCANO MONTIFERRO C.SO V.EMANUELE FR 42,,40.2151,8.587752,280,
B_41261,41261,SCANO MONTIFERRO C.SO V.EMANUELE 22,,40.217,8.587868,280,
B_4139,4139,SEDILO,,40.17339,8.919196,281,
B_42159,42159,SEDILO ACQUEDOTTO-SP90,,40.17399,8.912289,281,
B_42160,42160,SEDILO VIA CARLO ALBERTO 67,,40.17087,8.917097,281,
B_42162,42162,SEDILO C.SO ELEONORA 98,,40.17115,8.922898,281,
B_42163,42163,SEDILO PIAZZA SAN COSTANTINO,,40.17120,8.927936,281,
B_4114,4114,SENEGHE,,40.08079,8.612992,282,
B_41297,41297,SENEGHE CORSO UMBERTO 38,,40.08257,8.617054,282,
B_41299,41299,SENEGHE CORSO UMBERTO FR. 153,,40.0811,8.610658,282,
B_4005,4005,SENIS,,39.82221,8.94008,283,
B_5143,5143,SENNARIOLO,,40.21299,8.55546,284,
B_41319,41319,PARDU NOU VIA DEGLI ULIVI,,39.93298,8.637106,285,
B_41320,41320,SP 9 KM 8.700,,39.9503,8.646169,285,
B_4130,4130,PARDU NOU,,39.93931,8.640268,285,
B_4149,4149,SIAMAGGIORE,,39.94921,8.634129,285,
B_41315,41315,SIAMAGGIORE VIA ROMA 2,,39.9485,8.630106,285,
B_41052,41052,SIAMANNA VIA SARDEGNA 8,,39.92116,8.757707,286,
B_4008,4008,SIAMANNA,,39.91897,8.761833,286,
B_41049,41049,SIAMANNA VIA SARDEGNA 116,,39.91575,8.763693,286,
B_4007,4007,SIAPICCIA,,39.92676,8.7619,287,
B_4016,4016,SIMALA,,39.71984,8.830016,288,
B_41011,41011,SIMALA VIA ATZEI,,39.71966,8.826913,288,
B_41014,41014,SIMALA VIA CAGLIARI 45,,39.72285,8.830919,288,
B_4037,4037,SAN VERO CONGIUS,,39.93788,8.718461,289,
B_4038,4038,SIMAXIS,,39.93089,8.688881,289,
B_41053,41053,SIMAXIS VIA SAN SIMACO 311,,39.93016,8.695297,289,
B_41055,41055,SIMAXIS VIA SAN SIMACO 5,,39.93147,8.683764,289,
B_4093,4093,SINI,,39.75238,8.906733,290,
B_40973,40973,SINI VIA NUOVA 15,,39.75373,8.902365,290,
B_4019,4019,SIRIS,,39.71188,8.7758,291,
B_4107,4107,SODDI`,,40.13010,8.878155,292,
B_4128,4128,SOLARUSSA,,39.95316,8.671056,293,
